Fuel Type Code,Station Name,Street Address,Intersection Directions,City,State,ZIP,Borough,Plus4,Station Phone,Status Code,Expected Date,Groups With Access Code,Access Days Time,Cards Accepted,BD Blends,NG Fill Type Code,NG PSI,EV Level1 EVSE Num,EV Level2 EVSE Num,EV DC Fast Count,EV Other Info,EV Network,EV Network Web,Geocode Status,Latitude,Longitude,Date Last Confirmed,ID,Updated At,Owner Type Code,Federal Agency ID,Federal Agency Name,Open Date,Hydrogen Status Link,NG Vehicle Class,LPG Primary,E85 Blender Pump,EV Connector Types,Country,Intersection Directions (French),Access Days Time (French),BD Blends (French),Groups With Access Code (French),Hydrogen Is Retail,Access Code,Access Detail Code,Federal Agency Code,Facility Type,CNG Dispenser Num,CNG On-Site Renewable Source,CNG Total Compression Capacity,CNG Storage Capacity,LNG On-Site Renewable Source,E85 Other Ethanol Blends,EV Pricing,EV Pricing (French),LPG Nozzle Types,Hydrogen Pressures,Hydrogen Standards,CNG Fill Type Code,CNG PSI,CNG Vehicle Class,LNG Vehicle Class,EV On-Site Renewable Source,Restricted Access,RD Blends,RD Blends (French),RD Blended with Biodiesel,RD Maximum Biodiesel Level,NPS Unit Name,CNG Station Sells Renewable Natural Gas,LNG Station Sells Renewable Natural Gas
ELEC,Kings Nissan,2758 Coney Island Ave,,Brooklyn,NY,11235,Brooklyn,,718-376-0538,E,,Public - Call ahead,Dealership business hours; Nissan vehicle use only,,,,,,1,,,Non-Networked,,200-9,40.589167,-73.960707,6/9/20,44329,2023-02-15 22:45:41 UTC,P,,,11/30/11,,,,,J1772,US,,,,Public - Appeler à l'avance,,public,CALL,,CAR_DEALER,,,,,,,Free,,,,,,,,,,TRUE,,,,,,,
ELEC,Bay Ridge Municipal Parking Garage,8501 5th Ave,,Brooklyn,NY,11209,Brooklyn,,866-816-7584,E,,Public,,,,,,,5,,,EV Connect,http://evconnect.com/,GPS,40.621698,-74.02567,4/20/23,65288,2023-04-20 01:24:31 UTC,,,,6/1/15,,,,,J1772,US,,,,Public,,public,,,,,,,,,,,,,,,,,,,,,,,,,,,
ELEC,North 12 Parking (at the William Vale) - Tesla Supercharger,113 N. 12th Street,,Brooklyn,NY,11249,Brooklyn,,877-798-3752,E,,Public,24 hours daily; for Tesla use only,,,,,,,4,,Tesla,https://www.tesla.com/supercharger,200-8,40.721853,-73.956658,10/3/22,102327,2022-12-01 17:40:26 UTC,P,,,7/23/18,,,,,TESLA,US,,,,Public,,public,,,,,,,,,,$0.28 per kWh; $0.26 per minute above 60 kW and $0.13 per minute at or below 60 kW,,,,,,,,,,,,,,,,,
ELEC,Standard Parking 1360 Fulton Street - Tesla Destination,1360 Fulton St,,Brooklyn,NY,11216,Brooklyn,,800-836-6666  877-798-3752,E,,Public,,,,,,,2,,,Tesla Destination,https://www.tesla.com/destination-charging,200-9,40.680168,-73.946022,10/6/22,114889,2023-01-18 15:15:20 UTC,P,,,5/24/18,,,,,TESLA,US,,,,Public,,public,,,PAY_GARAGE,,,,,,,Free,,,,,,,,,,,,,,,,,
ELEC,Standard Parking 15 Metrotech - Tesla Destination,15 Metrotech Ctr S,,Brooklyn,NY,11201,Brooklyn,,800-836-6666  877-798-3752,E,,Public,,,,,,,3,,,Tesla Destination,https://www.tesla.com/destination-charging,200-8,40.693999,-73.983809,10/6/22,114890,2023-01-18 15:15:20 UTC,P,,,5/24/18,,,,,J1772 TESLA,US,,,,Public,,public,,,PAY_GARAGE,,,,,,,Free,,,,,,,,,,,,,,,,,
ELEC,Quik Park Armory Parking Inc. - Tesla Destination,172 Vanderbilt,,Brooklyn,NY,11205,Brooklyn,,718-222-9427  877-798-3752,E,,Public,,,,,,,2,,,Tesla Destination,https://www.tesla.com/destination-charging,200-8,40.692635,-73.969935,10/6/22,114891,2023-01-18 15:15:20 UTC,P,,,1/27/17,,,,,TESLA,US,,,,Public,,public,,,PAY_GARAGE,,,,,,,Free,,,,,,,,,,,,,,,,,
ELEC,Discount Parking 180 Ashland Place - Tesla Destination,180 Ashland Pl,,Brooklyn,NY,11217,Brooklyn,,718-643-0430  877-798-3752,E,,Public,,,,,,,2,,,Tesla Destination,https://www.tesla.com/destination-charging,200-8,40.689457,-73.978606,10/6/22,114892,2023-01-18 15:15:20 UTC,P,,,5/6/16,,,,,TESLA,US,,,,Public,,public,,,PAY_GARAGE,,,,,,,Free,,,,,,,,,,,,,,,,,
ELEC,iPark 22/34 N 6th Garage Corp - Tesla Destination,22 N 5th St,,Brooklyn,NY,11211,Brooklyn,,718-218-7570  877-798-3752,E,,Public,,,,,,,4,,,Tesla Destination,https://www.tesla.com/destination-charging,200-8,40.719338,-73.963081,10/6/22,114893,2023-01-18 15:15:20 UTC,P,,,3/14/17,,,,,J1772 TESLA,US,,,,Public,,public,,,PAY_GARAGE,,,,,,,Free,,,,,,,,,,,,,,,,,
ELEC,iPark 247 N 7th Street - Tesla Destination,249 N 7th St,,Brooklyn,NY,11248,Brooklyn,,929-337-8633  877-798-3752,E,,Public,,,,,,,3,,,Tesla Destination,https://www.tesla.com/destination-charging,200-9,40.715954,-73.954681,10/6/22,114894,2023-01-18 15:15:20 UTC,P,,,3/10/17,,,,,J1772 TESLA,US,,,,Public,,public,,,PAY_GARAGE,,,,,,,Free,,,,,,,,,,,,,,,,,
ELEC,Parkright 257 Gold Street - Tesla Destination,257 Gold St,,Brooklyn,NY,11201,Brooklyn,,212-247-7303  877-798-3752,E,,Public,,,,,,,3,,,Tesla Destination,https://www.tesla.com/destination-charging,200-9,40.696848,-73.983071,10/6/22,114895,2023-01-18 15:15:20 UTC,P,,,11/13/15,,,,,J1772 TESLA,US,,,,Public,,public,,,HOTEL,,,,,,,Free,,,,,,,,,,,,,,,,,
ELEC,Standard Parking Pierepoint Plaza - Tesla Destination,300 Cadman,,Brooklyn,NY,11201,Brooklyn,,800-836-6666  877-798-3752,E,,Public,,,,,,,3,,,Tesla Destination,https://www.tesla.com/destination-charging,GPS,40.695115,-73.990993,10/6/22,114896,2023-01-18 15:15:20 UTC,P,,,5/24/18,,,,,J1772 TESLA,US,,,,Public,,public,,,PAY_GARAGE,,,,,,,Free,,,,,,,,,,,,,,,,,
ELEC,Enterprise 309 Gold Street - Tesla Destination,309 Gold St,,Brooklyn,NY,11201,Brooklyn,,212-564-3199  877-798-3752,E,,Public,,,,,,,3,,,Tesla Destination,https://www.tesla.com/destination-charging,200-9,40.694841,-73.982849,10/6/22,114897,2023-01-18 15:15:20 UTC,P,,,2/9/17,,,,,J1772 TESLA,US,,,,Public,,public,,,HOTEL,,,,,,,Free,,,,,,,,,,,,,,,,,
ELEC,iPark NYC 2234 North 6th - Tesla Destination,34 North 6th St,,Brooklyn,NY,11249,Brooklyn,,855-472-7569  877-798-3752,E,,Public,,,,,,,3,,,Tesla Destination,https://www.tesla.com/destination-charging,200-9,40.71949,-73.963312,10/6/22,114898,2023-01-18 15:15:20 UTC,P,,,9/18/15,,,,,J1772 TESLA,US,,,,Public,,public,,,PAY_GARAGE,,,,,,,Free,,,,,,,,,,,,,,,,,
ELEC,Standard Parking 1 Metrotech - Tesla Destination,351 Jay St,,Brooklyn,NY,11201,Brooklyn,,212-321-7500  877-798-3752,E,,Public,,,,,,,3,,,Tesla Destination,https://www.tesla.com/destination-charging,200-9,40.69306,-73.987222,10/6/22,114900,2023-01-18 15:15:20 UTC,P,,,5/24/18,,,,,J1772 TESLA,US,,,,Public,,public,,,PAY_GARAGE,,,,,,,Free,,,,,,,,,,,,,,,,,
ELEC,GGMC Belltel Car Park - Tesla Destination,356 Bridge St,,Brooklyn,NY,11201,Brooklyn,,718-643-1385  877-798-3752,E,,Public,,,,,,,3,,,Tesla Destination,https://www.tesla.com/destination-charging,200-8,40.692579,-73.985252,10/6/22,114901,2023-01-18 15:15:20 UTC,P,,,3/21/17,,,,,J1772 TESLA,US,,,,Public,,public,,,PAY_GARAGE,,,,,,,Free,,,,,,,,,,,,,,,,,
ELEC,Quik Park 365 Management LLC - Tesla Destination,365 Bond St,,Brooklyn,NY,11231,Brooklyn,,888-705-7845  877-798-3752,E,,Public,,,,,,,3,,,Tesla Destination,https://www.tesla.com/destination-charging,200-9,40.677412,-73.990986,10/6/22,114902,2023-01-18 15:15:20 UTC,P,,,1/10/17,,,,,J1772 TESLA,US,,,,Public,,public,,,PAY_GARAGE,,,,,,,Free,,,,,,,,,,,,,,,,,
ELEC,GMC 388 Bridge Street - Tesla Destination,388 Bridge St,,Brooklyn,NY,11201,Brooklyn,,718-855-1061  877-798-3752,E,,Public,,,,,,,3,,,Tesla Destination,https://www.tesla.com/destination-charging,200-9,40.691469,-73.985446,10/6/22,114903,2023-01-18 15:15:20 UTC,P,,,4/30/18,,,,,TESLA,US,,,,Public,,public,,,PAY_GARAGE,,,,,,,Free,,,,,,,,,,,,,,,,,
ELEC,Quik Park Brooklyn Bridge LLC - Tesla Destination,4 Joralemon St,,Brooklyn,NY,11201,Brooklyn,,718-488-0099  877-798-3752,E,,Public,,,,,,,3,,,Tesla Destination,https://www.tesla.com/destination-charging,200-8,40.692941,-74.000298,10/6/22,114904,2023-01-18 15:15:20 UTC,P,,,3/11/16,,,,,J1772 TESLA,US,,,,Public,,public,,,PAY_GARAGE,,,,,,,Free,,,,,,,,,,,,,,,,,
ELEC,Rapidpark 44 State Street - Tesla Destination,44 State St,,Brooklyn,NY,11201,Brooklyn,,718-624-5955  877-798-3752,E,,Public,,,,,,,3,,,Tesla Destination,https://www.tesla.com/destination-charging,200-8,40.692062,-73.99816,10/6/22,114905,2023-01-18 15:15:20 UTC,P,,,6/13/17,,,,,J1772 TESLA,US,,,,Public,,public,,,PAY_GARAGE,,,,,,,Free,,,,,,,,,,,,,,,,,
ELEC,Park Kwik LLC 50 Washington St. - Tesla Destination,45 Main St,,Brooklyn,NY,11201,Brooklyn,,718-222-0500  877-798-3752,E,,Public,,,,,,,3,,,Tesla Destination,https://www.tesla.com/destination-charging,200-9,40.702882,-73.990594,10/6/22,114906,2023-01-18 15:15:20 UTC,P,,,8/10/17,,,,,J1772 TESLA,US,,,,Public,,public,,,PAY_GARAGE,,,,,,,Free,,,,,,,,,,,,,,,,,
ELEC,Kings County Parking - Tesla Destination,581 Clarkson Ave,,Brooklyn,NY,11203,Brooklyn,,718-245-5337  877-798-3752,E,,Public,,,,,,,2,,,Tesla Destination,https://www.tesla.com/destination-charging,200-9,40.65601,-73.940902,10/6/22,114907,2023-01-18 15:15:20 UTC,P,,,6/16/17,,,,,TESLA,US,,,,Public,,public,,,PAY_GARAGE,,,,,,,Free,,,,,,,,,,,,,,,,,
ELEC,1 Hotel Brooklyn Bridge - Tesla Destination,60 Furman St,,Brooklyn,NY,11201,Brooklyn,,877-803-1111  877-798-3752,E,,Public,,,,,,,7,,,Tesla Destination,https://www.tesla.com/destination-charging,200-9,40.701461,-73.995566,10/6/22,114908,2023-01-18 15:15:20 UTC,P,,,4/6/17,,,,,J1772 TESLA,US,,,,Public,,public,,,HOTEL,,,,,,,Free,,,,,,,,,,,,,,,,,
ELEC,City Parking Linc Garage - Tesla Destination,62 Northside Piers,,Brooklyn,NY,11249,Brooklyn,,718-963-7048  877-798-3752,E,,Public,,,,,,,3,,,Tesla Destination,https://www.tesla.com/destination-charging,200-8,40.719425,-73.963964,10/6/22,114909,2023-01-18 15:15:20 UTC,P,,,6/16/17,,,,,J1772 TESLA,US,,,,Public,,public,,,PAY_GARAGE,,,,,,,Free,,,,,,,,,,,,,,,,,
ELEC,"Littleman Driggs Parking, LLC - Tesla Destination",626 Driggs Ave,,Brooklyn,NY,11211,Brooklyn,,212-714-3571  877-798-3752,E,,Public,,,,,,,3,,,Tesla Destination,https://www.tesla.com/destination-charging,200-9,40.715033,-73.958595,10/6/22,114910,2023-01-18 15:15:20 UTC,P,,,5/24/18,,,,,J1772 TESLA,US,,,,Public,,public,,,PAY_GARAGE,,,,,,,Free,,,,,,,,,,,,,,,,,
ELEC,GGMC Parking 66 Rockwell Pl Garage - Tesla Destination,66 Rockwell Pl,,Brooklyn,NY,11217,Brooklyn,,718-797-2408  877-798-3752,E,,Public,,,,,,,3,,,Tesla Destination,https://www.tesla.com/destination-charging,200-8,40.688086,-73.979234,10/6/22,114911,2023-01-18 15:15:20 UTC,P,,,11/13/15,,,,,J1772 TESLA,US,,,,Public,,public,,,PAY_GARAGE,,,,,,,Free,,,,,,,,,,,,,,,,,
ELEC,Standard Parking 200 Cadman Plaza West - Tesla Destination,75 Henry St,,Brooklyn,NY,11221,Brooklyn,,800-836-6666  877-798-3752,E,,Public,,,,,,,3,,,Tesla Destination,https://www.tesla.com/destination-charging,200-9,40.698707,-73.992365,10/6/22,114912,2023-01-18 15:15:20 UTC,P,,,5/24/18,,,,,J1772 TESLA,US,,,,Public,,public,,,PAY_GARAGE,,,,,,,Free,,,,,,,,,,,,,,,,,
ELEC,GGMC Parking 75 Smith St Garage - Tesla Destination,75 Smith St,,Brooklyn,NY,11201,Brooklyn,,718-643-0593  877-798-3752,E,,Public,,,,,,,3,,,Tesla Destination,https://www.tesla.com/destination-charging,200-9,40.689016,-73.988672,10/6/22,114913,2023-01-18 15:15:20 UTC,P,,,11/13/15,,,,,J1772 TESLA,US,,,,Public,,public,,,PAY_GARAGE,,,,,,,Free,,,,,,,,,,,,,,,,,
ELEC,Standard Parking 2 Metrotech - Tesla Destination,8 Metrotech Ctr S,,Brooklyn,NY,11201,Brooklyn,,800-836-6666  877-798-3752,E,,Public,,,,,,,3,,,Tesla Destination,https://www.tesla.com/destination-charging,200-8,40.693122,-73.985696,10/6/22,114914,2023-01-18 15:15:20 UTC,P,,,5/24/18,,,,,J1772 TESLA,US,,,,Public,,public,,,PAY_GARAGE,,,,,,,Free,,,,,,,,,,,,,,,,,
ELEC,Quik Park 81 Fleet Place LLC - Tesla Destination,81 Fleet Pl,,Brooklyn,NY,11201,Brooklyn,,212-832-2066  877-798-3752,E,,Public,,,,,,,3,,,Tesla Destination,https://www.tesla.com/destination-charging,200-9,40.693248,-73.981744,10/6/22,114915,2023-01-18 15:15:20 UTC,P,,,3/11/16,,,,,J1772 TESLA,US,,,,Public,,public,,,PAY_GARAGE,,,,,,,Free,,,,,,,,,,,,,,,,,
ELEC,Rapidpark 906 Union Street - Tesla Destination,906 Union St,,Brooklyn,NY,11215,Brooklyn,,718-622-4867  877-798-3752,E,,Public,,,,,,,3,,,Tesla Destination,https://www.tesla.com/destination-charging,200-9,40.672884,-73.971541,10/6/22,114916,2023-01-18 15:15:20 UTC,P,,,6/13/17,,,,,J1772 TESLA,US,,,,Public,,public,,,PAY_GARAGE,,,,,,,Free,,,,,,,,,,,,,,,,,
ELEC,imPark 101 Bedford Ave - Tesla Destination,101 Bedford Ave,,Brooklyn,NY,11211,Brooklyn,,718-387-1737  877-798-3752,E,,Public,,,,,,,3,,,Tesla Destination,https://www.tesla.com/destination-charging,200-9,40.719751,-73.954866,10/6/22,114918,2023-01-18 15:15:20 UTC,P,,,1/9/18,,,,,J1772 TESLA,US,,,,Public,,public,,,PAY_GARAGE,,,,,,,Free,,,,,,,,,,,,,,,,,
ELEC,The William Vale Hotel - Tesla Destination,111 N 12th St,,Brooklyn,NY,11249,Brooklyn,,718-631-8400  877-798-3752,E,,Public,,,,,,,4,,,Tesla Destination,https://www.tesla.com/destination-charging,200-8,40.722137,-73.956583,10/6/22,114919,2023-01-18 15:15:20 UTC,P,,,5/9/16,,,,,TESLA,US,,,,Public,,public,,,HOTEL,,,,,,,Free,,,,,,,,,,,,,,,,,
ELEC,iPark 386 E 48th Street - Tesla Destination,386 E 48th St,,New York,NY,11248,Brooklyn,,212-813-0014  877-798-3752,E,,Public,,,,,,,3,,,Tesla Destination,https://www.tesla.com/destination-charging,200-8,40.7529,-73.967723,10/6/22,115115,2023-01-18 15:15:20 UTC,P,,,3/10/17,,,,,J1772 TESLA,US,,,,Public,,public,,,PAY_GARAGE,,,,,,,Free,,,,,,,,,,,,,,,,,
ELEC,Brooklyn Museum - Tesla Supercharger,878 Washington Avenue,,Brooklyn,NY,11225,Brooklyn,,877-798-3752,E,,Public,24 hours daily; for Tesla use only,,,,,,,10,,Tesla,https://www.tesla.com/supercharger,200-8,40.669936,-73.963069,10/3/22,122247,2022-12-01 17:40:26 UTC,P,,,3/1/19,,,,,TESLA,US,,,,Public,,public,,,,,,,,,,$0.28 per kWh; $0.26 per minute above 60 kW and $0.13 per minute at or below 60 kW,,,,,,,,,,,,,,,,,
ELEC,ImPark Underhill Garage - Tesla Destination,105 Underhill Ave,,Brooklyn,NY,11238,Brooklyn,,877-909-6199  877-798-3752,E,,Public,,,,,,,4,,,Tesla Destination,https://www.tesla.com/destination-charging,200-9,40.6775259,-73.9657852,10/6/22,122469,2023-01-18 15:15:20 UTC,P,,,12/19/18,,,,,TESLA,US,,,,Public,,public,,,,,,,,,,Free,,,,,,,,,,,,,,,,,
ELEC,ProPark 184 Kent Ave - Tesla Destination,184 Kent Ave,,Brooklyn,NY,11249,Brooklyn,,718-559-5699  877-798-3752,E,,Public,,,,,,,4,,,Tesla Destination,https://www.tesla.com/destination-charging,200-9,40.7185092,-73.9648207,10/6/22,122470,2023-01-18 15:15:20 UTC,P,,,1/18/19,,,,,TESLA,US,,,,Public,,public,,,,,,,,,,Free,,,,,,,,,,,,,,,,,
ELEC,ImPark 500 4th Ave - Tesla Destination,212 12th St,,Brooklyn,NY,11215,Brooklyn,,212-937-8660  877-798-3752,E,,Public,,,,,,,4,,,Tesla Destination,https://www.tesla.com/destination-charging,200-8,40.6685202,-73.9904888,10/6/22,122471,2023-01-18 15:15:20 UTC,P,,,12/19/18,,,,,TESLA,US,,,,Public,,public,,,,,,,,,,Free,,,,,,,,,,,,,,,,,
ELEC,Sherman Parking - Tesla Destination,26 S 6th St,,Brooklyn,NY,11211,Brooklyn,,718-243-2688  877-798-3752,E,,Public,,,,,,,4,,,Tesla Destination,https://www.tesla.com/destination-charging,200-8,40.711729,-73.967698,10/6/22,122472,2023-01-18 15:15:20 UTC,P,,,1/17/19,,,,,TESLA,US,,,,Public,,public,,,,,,,,,,Free,,,,,,,,,,,,,,,,,
ELEC,iPark 34 N 7th Street 2 - Tesla Destination,34 N 7th St,,Brooklyn,NY,11249,Brooklyn,,718-782-1494  877-798-3752,E,,Public,,,,,,,2,,,Tesla Destination,https://www.tesla.com/destination-charging,200-9,40.720708,-73.96231,10/6/22,122473,2023-01-18 15:15:20 UTC,P,,,6/13/17,,,,,TESLA,US,,,,Public,,public,,,,,,,,,,Free,,,,,,,,,,,,,,,,,
ELEC,IMPark 353 4th Ave - Tesla Destination,353 4th Ave,,Brooklyn,NY,11215,Brooklyn,,212-937-8660  877-798-3752,E,,Public,,,,,,,4,,,Tesla Destination,https://www.tesla.com/destination-charging,200-8,40.6732353,-73.9862323,10/6/22,122475,2023-01-18 15:15:20 UTC,P,,,2/12/19,,,,,TESLA,US,,,,Public,,public,,,,,,,,,,Free,,,,,,,,,,,,,,,,,
ELEC,MTP Parking 363 Bond Street - Tesla Destination,363 Bond St,,Brooklyn,NY,11231,Brooklyn,,212-575-5335  877-798-3752,E,,Public,,,,,,,4,,,Tesla Destination,https://www.tesla.com/destination-charging,200-9,40.6781552,-73.9904425,10/6/22,122476,2023-01-18 15:15:20 UTC,P,,,1/18/19,,,,,TESLA,US,,,,Public,,public,,,,,,,,,,Free,,,,,,,,,,,,,,,,,
ELEC,MTP Parking 568 Union Ave - Tesla Destination,568 Union Ave,,Brooklyn,NY,11211,Brooklyn,,718-218-6688  877-798-3752,E,,Public,,,,,,,4,,,Tesla Destination,https://www.tesla.com/destination-charging,200-9,40.718054,-73.951847,10/6/22,122477,2023-01-18 15:15:20 UTC,P,,,1/17/19,,,,,TESLA,US,,,,Public,,public,,,,,,,,,,Free,,,,,,,,,,,,,,,,,
ELEC,ImPark Atlantic Terrace - Tesla Destination,669 Atlantic Ave,,Brooklyn,NY,11217,Brooklyn,,718-857-7770  877-798-3752,E,,Public,,,,,,,4,,,Tesla Destination,https://www.tesla.com/destination-charging,200-8,40.6832871,-73.9735893,10/6/22,122478,2023-01-18 15:15:20 UTC,P,,,12/19/18,,,,,TESLA,US,,,,Public,,public,,,,,,,,,,Free,,,,,,,,,,,,,,,,,
ELEC,MTP Parking 755 Kent Ave - Tesla Destination,755 Kent Ave,,Brooklyn,NY,11249,Brooklyn,,718-855-7407  877-798-3752,E,,Public,,,,,,,4,,,Tesla Destination,https://www.tesla.com/destination-charging,200-8,40.698671,-73.959625,10/6/22,122479,2023-01-18 15:15:20 UTC,P,,,1/17/19,,,,,TESLA,US,,,,Public,,public,,,,,,,,,,Free,,,,,,,,,,,,,,,,,
ELEC,INDUSTRY CITY LOT B WEST,533 2nd Ave,,Brooklyn,NY,11232,Brooklyn,,888-758-4389,E,,Public,24 hours daily,,,,,,2,,,ChargePoint Network,http://www.chargepoint.com/,GPS,40.659333,-74.006419,4/20/23,122592,2023-04-20 00:14:32 UTC,,,,5/3/19,,,,,J1772,US,,,,Public,,public,,,,,,,,,,,,,,,,,,,,,,,,,,,
ELEC,Atlantic Center - Tesla Supercharger,625 Atlantic Avenue B12,,Brooklyn,NY,11217,Brooklyn,,877-798-3752,E,,Public,24 hours daily; for Tesla use only,,,,,,,12,,Tesla,https://www.tesla.com/supercharger,200-9,40.683715,-73.974337,10/3/22,149300,2022-12-01 17:40:26 UTC,P,,,9/30/19,,,,,TESLA,US,,,,Public,,public,,,,,,,,,,$0.28 per kWh; $0.26 per minute above 60 kW and $0.13 per minute at or below 60 kW,,,,,,,,,,,,,,,,,
ELEC,333 Schermerhorn Garage - The Hub - Tesla Destination,333 Schermerhorn St,,Brooklyn,NY,11217,Brooklyn,,718-395-4072  877-798-3752,E,,Public,,,,,,,4,,,Tesla Destination,https://www.tesla.com/destination-charging,200-9,40.686983,-73.980498,10/6/22,150532,2023-01-18 15:15:20 UTC,P,,,8/28/19,,,,,TESLA,US,,,,Public,,public,,,,,,,,,,Free,,,,,,,,,,,,,,,,,
ELEC,One Blue Slip-Greenpoint - Tesla Destination,1 Blue Slip,,Brooklyn,NY,11222,Brooklyn,,718-713-8733  877-798-3752,E,,Public,,,,,,,5,,,Tesla Destination,https://www.tesla.com/destination-charging,GPS,40.736562,-73.959195,10/6/22,150540,2023-01-18 15:15:20 UTC,P,,,8/28/19,,,,,J1772 TESLA,US,,,,Public,,public,,,,,,,,,,Free,,,,,,,,,,,,,,,,,
ELEC,Enterprise Parking 545 Washington Ave - Tesla Destination,545 Washington Ave,,Brooklyn,NY,11238,Brooklyn,,347-889-6642  877-798-3752,E,,Public,,,,,,,4,,,Tesla Destination,https://www.tesla.com/destination-charging,200-9,40.681953,-73.964405,10/6/22,150573,2023-01-18 15:15:20 UTC,P,,,3/31/19,,,,,TESLA,US,,,,Public,,public,,,,,,,,,,Free,,,,,,,,,,,,,,,,,
ELEC,Enterprise Parking 150 Myrtle Ave - Tesla Destination,150 Myrtle Ave,,Brooklyn,NY,11201,Brooklyn,,718-422-7506  877-798-3752,E,,Public,,,,,,,4,,,Tesla Destination,https://www.tesla.com/destination-charging,200-9,40.693476,-73.982605,10/6/22,150575,2023-01-18 15:15:20 UTC,P,,,3/31/19,,,,,TESLA,US,,,,Public,,public,,,,,,,,,,Free,,,,,,,,,,,,,,,,,
ELEC,Enterprise Parking 147 Flatbush Avenue Extension - Tesla Destination,147 Flatbush Ave Ext,,Brooklyn,NY,11201,Brooklyn,,718-855-7050  877-798-3752,E,,Public,,,,,,,4,,,Tesla Destination,https://www.tesla.com/destination-charging,200-9,40.695154,-73.983861,10/6/22,150576,2023-01-18 15:15:20 UTC,P,,,3/31/19,,,,,TESLA,US,,,,Public,,public,,,,,,,,,,Free,,,,,,,,,,,,,,,,,
ELEC,IMPark 302 2nd St - Tesla Destination,302 2nd St,,Brooklyn,NY,11215,Brooklyn,,718-499-1235  877-798-3752,E,,Public,,,,,,,4,,,Tesla Destination,https://www.tesla.com/destination-charging,200-9,40.674312,-73.98488,10/6/22,150581,2023-01-18 15:15:20 UTC,P,,,3/31/19,,,,,TESLA,US,,,,Public,,public,,,,,,,,,,Free,,,,,,,,,,,,,,,,,
ELEC,IPark 255 Schermerhorn - Tesla Destination,255 Schermerhorn St,,Brooklyn,NY,11217,Brooklyn,,347-763-2930  877-798-3752,E,,Public,,,,,,,4,,,Tesla Destination,https://www.tesla.com/destination-charging,200-9,40.687913,-73.983039,10/6/22,150582,2023-01-18 15:15:20 UTC,P,,,3/31/19,,,,,TESLA,US,,,,Public,,public,,,,,,,,,,Free,,,,,,,,,,,,,,,,,
ELEC,IPark 99 3rd Avenue - Tesla Destination,99 3rd Ave,,Brooklyn,NY,11217,Brooklyn,,347-457-6504  877-798-3752,E,,Public,,,,,,,4,,,Tesla Destination,https://www.tesla.com/destination-charging,200-8,40.683126,-73.982088,10/6/22,150583,2023-01-18 15:15:20 UTC,P,,,3/31/19,,,,,TESLA,US,,,,Public,,public,,,,,,,,,,Free,,,,,,,,,,,,,,,,,
ELEC,iPark 34 N 7th Street - Tesla Destination,34 N 7th St,,Brooklyn,NY,11249,Brooklyn,,718-782-1494  877-798-3752,E,,Public,,,,,,,8,,,Tesla Destination,https://www.tesla.com/destination-charging,200-9,40.72054,-73.962249,10/6/22,168539,2023-01-18 15:15:20 UTC,P,,,5/22/18,,,,,TESLA,US,,,,Public,,public,,,,,,,,,,Free,,,,,,,,,,,,,,,,,
ELEC,577 Baltic Street - Adam America Real Estate - Tesla Destination,577 Baltic Street,,Brooklyn,NY,11217,Brooklyn,,  877-798-3752,E,,Public,,,,,,,4,,,Tesla Destination,https://www.tesla.com/destination-charging,200-9,40.681151,-73.982101,10/6/22,168557,2023-01-18 15:15:20 UTC,P,,,4/12/17,,,,,TESLA,US,,,,Public,,public,,,,,,,,,,Free,,,,,,,,,,,,,,,,,
ELEC,610 Warren Street - Tesla Destination,610 Warren Street,,Brooklyn,NY,11217,Brooklyn,,  877-798-3752,E,,Public,,,,,,,6,,,Tesla Destination,https://www.tesla.com/destination-charging,200-9,40.681263,-73.981155,10/6/22,168558,2023-01-18 15:15:20 UTC,P,,,6/16/17,,,,,TESLA,US,,,,Public,,public,,,,,,,,,,Free,,,,,,,,,,,,,,,,,
ELEC,Park Kwik - 110 Livingston - Tesla Destination,110 Livingston St,,Brooklyn,NY,11201,Brooklyn,,718-643-8205  877-798-3752,E,,Public,,,,,,,4,,,Tesla Destination,https://www.tesla.com/destination-charging,200-9,40.6909872,-73.9901305,10/6/22,169008,2023-01-18 15:15:20 UTC,P,,,10/11/19,,,,,J1772 TESLA,US,,,,Public,,public,,,,,,,,,,Free,,,,,,,,,,,,,,,,,
ELEC,Park Kwik - 211 Atlantic - Tesla Destination,211 Atlantic Ave,,Brooklyn,NY,11201,Brooklyn,,718-858-9356  877-798-3752,E,,Public,,,,,,,6,,,Tesla Destination,https://www.tesla.com/destination-charging,200-9,40.6910734,-73.9901973,10/6/22,169009,2023-01-18 15:15:20 UTC,P,,,10/11/19,,,,,J1772 TESLA,US,,,,Public,,public,,,,,,,,,,Free,,,,,,,,,,,,,,,,,
ELEC,Park Kwik-300 Ashland - Tesla Destination,300 Ashland Pl,,Brooklyn,NY,11217,Brooklyn,,718-925-3387  877-798-3752,E,,Public,,,,,,,4,,,Tesla Destination,https://www.tesla.com/destination-charging,200-8,40.68608,-73.978252,10/6/22,169010,2023-01-18 15:15:20 UTC,P,,,10/11/19,,,,,TESLA,US,,,,Public,,public,,,,,,,,,,Free,,,,,,,,,,,,,,,,,
ELEC,NYC Parking Kent,444 Kent Avenue,Attendant will assist in charging ||vehicle.  Parking rates apply. Inquire ||within.||,Brooklyn,NY,11211,Brooklyn,,888-998-2546,E,,Public,,,,,,,2,,,Blink Network,http://www.blinkcharging.com/,GPS,40.709168,-73.968491,4/19/23,193979,2023-04-19 23:58:16 UTC,,,,8/17/21,,,,,J1772,US,,,,Public,,public,,,,,,,,,,Free,,,,,,,,,,,,,,,,,
ELEC,383 Court St,383 Court St,,Brooklyn,NY,11231,Brooklyn,,888-356-8911,E,,Public,24 hours daily,,,,,,2,,,FLO,https://flo.ca/,GPS,40.680484,-73.996719,4/20/23,194646,2023-04-20 01:05:23 UTC,,,,8/28/21,,,,,J1772,US,,,,Public,,public,,,,,,,,,,,,,,,,,,,,,,,,,,,
ELEC,99 Prospect Park W,99 Prospect Park W,,Brooklyn,NY,11215,Brooklyn,,888-356-8911,E,,Public,24 hours daily,,,,,,2,,,FLO,https://flo.ca/,GPS,40.66696,-73.975032,4/20/23,194647,2023-04-20 01:05:23 UTC,,,,8/28/21,,,,,J1772,US,,,,Public,,public,,,,,,,,,,,,,,,,,,,,,,,,,,,
ELEC,Revel Brooklyn Superhub,467 Marcy Ave,,Brooklyn,NY,11206,Brooklyn,,949-945-2000,E,,Public,24 hours daily,,,,,,,25,,EVGATEWAY,http://evgateway.com/,GPS,40.69933379,-73.9496648,9/10/21,194700,2022-02-10 19:42:29 UTC,SG,,,8/29/21,,,,,CHADEMO J1772COMBO TESLA,US,,,,Public,,public,,,PARKING_LOT,,,,,,,$0.39 per kWh,,,,,,,,,,FALSE,,,,,,,
ELEC,"Walgreens - Brooklyn, NY #15097",589 Prospect Avenue,"$2.00 first hour, billed at start. $2.00 per plug hour thereafter.",Brooklyn,NY,11215,Brooklyn,,800-663-5633,E,,Public,24 hours daily,,,,,,1,,,SemaCharge Network,https://semaconnect.com/,GPS,40.65678,-73.977759,4/20/23,194845,2023-04-20 00:00:21 UTC,,,,8/4/17,,,,,J1772,US,,,,Public,,public,,,,,,,,,,$2.00/Hr Parking Fee,,,,,,,,,,,,,,,,,
ELEC,33 Norman Ave,33 Norman Ave,,Brooklyn,NY,11222,Brooklyn,,888-356-8911,E,,Public,24 hours daily,,,,,,4,,,FLO,https://flo.ca/,GPS,40.724591,-73.954512,4/20/23,195667,2023-04-20 01:05:23 UTC,,,,9/8/21,,,,,J1772,US,,,,Public,,public,,,,,,,,,,,,,,,,,,,,,,,,,,,
ELEC,1235 Linden Blvd,1235 Linden Blvd,,Brooklyn,NY,11212,Brooklyn,,888-356-8911,E,,Public,24 hours daily,,,,,,4,,,FLO,https://flo.ca/,GPS,40.654381,-73.913436,4/20/23,195668,2023-04-20 01:05:23 UTC,,,,9/8/21,,,,,J1772,US,,,,Public,,public,,,,,,,,,,,,,,,,,,,,,,,,,,,
ELEC,1065 Elton St,1065 Elton St,,Brooklyn,NY,11239,Brooklyn,,888-356-8911,E,,Public,24 hours daily,,,,,,4,,,FLO,https://flo.ca/,GPS,40.657441,-73.874619,4/20/23,196329,2023-04-20 01:05:23 UTC,,,,9/24/21,,,,,J1772,US,,,,Public,,public,,,,,,,,,,,,,,,,,,,,,,,,,,,
ELEC,626 Sheepshead Bay Rd - Parking,626 Sheepshead Bay Rd,"Entrance is in-between post office and Net Coast Market on Sheepshead Bay Rd
Entrance is in-between post office and ||Net Coast Market on Sheepshead Bay Rd.||",Brooklyn,NY,11224,Brooklyn,,888-998-2546,E,,Public,,,,,,,6,,,Blink Network,http://www.blinkcharging.com/,GPS,40.57863,-73.975218,4/19/23,197548,2023-04-19 23:58:24 UTC,,,,10/8/21,,,,,J1772,US,,,,Public,,public,,,,,,,,,,Free,,,,,,,,,,,,,,,,,
ELEC,597 Clarkson Ave,597 Clarkson Ave,,Brooklyn,NY,11203,Brooklyn,,888-356-8911,E,,Public,24 hours daily,,,,,,4,,,FLO,https://flo.ca/,GPS,40.656102,-73.940436,4/20/23,197855,2023-04-20 01:05:23 UTC,,,,10/16/21,,,,,J1772,US,,,,Public,,public,,,,,,,,,,,,,,,,,,,,,,,,,,,
ELEC,167-149 Meeker Ave,167-149 Meeker Ave,,Brooklyn,NY,11211,Brooklyn,,888-356-8911,E,,Public,24 hours daily,,,,,,6,,,FLO,https://flo.ca/,GPS,40.714318,-73.953186,4/20/23,199108,2023-04-20 01:05:23 UTC,,,,10/26/21,,,,,J1772,US,,,,Public,,public,,,,,,,,,,,,,,,,,,,,,,,,,,,
ELEC,831 3rd Ave,831 3rd Ave,,Brooklyn,NY,11232,Brooklyn,,888-356-8911,E,,Public,24 hours daily,,,,,,6,,,FLO,https://flo.ca/,GPS,40.65676618,-74.00480169,4/20/23,199508,2023-04-20 01:05:23 UTC,,,,10/30/21,,,,,J1772,US,,,,Public,,public,,,,,,,,,,,,,,,,,,,,,,,,,,,
ELEC,7 Marcus Garvey Blvd,7 Marcus Garvey Blvd,,Brooklyn,NY,11206,Brooklyn,,888-356-8911,E,,Public,24 hours daily,,,,,,2,,,FLO,https://flo.ca/,GPS,40.700039,-73.941261,4/20/23,202055,2023-04-20 01:05:23 UTC,,,,12/4/21,,,,,J1772,US,,,,Public,,public,,,,,,,,,,,,,,,,,,,,,,,,,,,
ELEC,145 Brooklyn Ave,145 Brooklyn Ave,,Brooklyn,NY,11213,Brooklyn,,888-356-8911,E,,Public,24 hours daily,,,,,,2,,,FLO,https://flo.ca/,GPS,40.674612,-73.944569,4/20/23,202163,2023-04-20 01:05:23 UTC,,,,12/8/21,,,,,J1772,US,,,,Public,,public,,,,,,,,,,,,,,,,,,,,,,,,,,,
ELEC,484 43rd St,484 43rd St,,Brooklyn,NY,11232,Brooklyn,,888-356-8911,E,,Public,24 hours daily,,,,,,2,,,FLO,https://flo.ca/,GPS,40.649116,-74.006479,4/20/23,202164,2023-04-20 01:05:23 UTC,,,,12/8/21,,,,,J1772,US,,,,Public,,public,,,,,,,,,,,,,,,,,,,,,,,,,,,
ELEC,352 8th St,352 8th St,,Brooklyn,NY,11215,Brooklyn,,888-356-8911,E,,Public,24 hours daily,,,,,,2,,,FLO,https://flo.ca/,GPS,40.668517,-73.983283,4/20/23,202165,2023-04-20 01:05:23 UTC,,,,12/8/21,,,,,J1772,US,,,,Public,,public,,,,,,,,,,,,,,,,,,,,,,,,,,,
ELEC,395 Lenox Rd,395 Lenox Rd,,Brooklyn,NY,11203,Brooklyn,,888-356-8911,E,,Public,24 hours daily,,,,,,4,,,FLO,https://flo.ca/,GPS,40.654476,-73.946741,4/20/23,202766,2023-04-20 01:05:23 UTC,,,,12/17/21,,,,,J1772,US,,,,Public,,public,,,,,,,,,,,,,,,,,,,,,,,,,,,
ELEC,419 Stuyvesant Ave,419 Stuyvesant Ave,,Brooklyn,NY,11233,Brooklyn,,888-356-8911,E,,Public,24 hours daily,,,,,,2,,,FLO,https://flo.ca/,200-8,40.67984,-73.9313,4/20/23,202930,2023-04-20 01:05:23 UTC,,,,12/22/21,,,,,J1772,US,,,,Public,,public,,,,,,,,,,,,,,,,,,,,,,,,,,,
ELEC,134 N 4th St,134 N 4th St,,Brooklyn,NY,11249,Brooklyn,,888-356-8911,E,,Public,24 hours daily,,,,,,4,,,FLO,https://flo.ca/,GPS,40.716441,-73.960043,4/20/23,202931,2023-04-20 01:05:23 UTC,,,,12/22/21,,,,,J1772,US,,,,Public,,public,,,,,,,,,,,,,,,,,,,,,,,,,,,
ELEC,BORO PARK BORO CHARGE 1,4915 10th Ave,,Borough Park,NY,11219,Brooklyn,,888-758-4389,E,,Public,24 hours daily,,,,,,2,,,ChargePoint Network,http://www.chargepoint.com/,GPS,40.638583,-73.998687,4/20/23,206908,2023-04-20 00:30:01 UTC,,,,2/23/22,,,,,J1772,US,,,,Public,,public,,,,,,,,,,,,,,,,,,,,,,,,,,,
ELEC,BORO PARK BORO CHARGE 4,4915 10th Ave,,Borough Park,NY,11219,Brooklyn,,888-758-4389,E,,Public,24 hours daily,,,,,,2,,,ChargePoint Network,http://www.chargepoint.com/,GPS,40.638561,-73.998686,4/20/23,206911,2023-04-20 00:30:01 UTC,,,,2/23/22,,,,,J1772,US,,,,Public,,public,,,,,,,,,,,,,,,,,,,,,,,,,,,
ELEC,BORO PARK BORO CHARGE 5,4915 10th Ave,,Borough Park,NY,11219,Brooklyn,,888-758-4389,E,,Public,24 hours daily,,,,,,2,,,ChargePoint Network,http://www.chargepoint.com/,GPS,40.63855,-73.998668,4/20/23,206912,2023-04-20 00:30:02 UTC,,,,2/23/22,,,,,J1772,US,,,,Public,,public,,,,,,,,,,,,,,,,,,,,,,,,,,,
ELEC,BORO PARK BORO CHARGE 10,4915 10th Ave,,Borough Park,NY,11219,Brooklyn,,888-758-4389,E,,Public,24 hours daily,,,,,,2,,,ChargePoint Network,http://www.chargepoint.com/,GPS,40.638531,-73.99858,4/20/23,206913,2023-04-20 00:30:02 UTC,,,,2/23/22,,,,,J1772,US,,,,Public,,public,,,,,,,,,,,,,,,,,,,,,,,,,,,
ELEC,BORO PARK BORO CHARGE 9,4915 10th Ave,,Borough Park,NY,11219,Brooklyn,,888-758-4389,E,,Public,24 hours daily,,,,,,2,,,ChargePoint Network,http://www.chargepoint.com/,GPS,40.638557,-73.998678,4/20/23,206914,2023-04-20 00:30:02 UTC,,,,2/23/22,,,,,J1772,US,,,,Public,,public,,,,,,,,,,,,,,,,,,,,,,,,,,,
ELEC,BORO PARK BORO CHARGE 8,4915 10th Ave,,Borough Park,NY,11219,Brooklyn,,888-758-4389,E,,Public,24 hours daily,,,,,,2,,,ChargePoint Network,http://www.chargepoint.com/,GPS,40.638536,-73.99864,4/20/23,206915,2023-04-20 00:30:02 UTC,,,,2/23/22,,,,,J1772,US,,,,Public,,public,,,,,,,,,,,,,,,,,,,,,,,,,,,
ELEC,BORO PARK BORO CHARGE 6,4915 10th Ave,,Borough Park,NY,11219,Brooklyn,,888-758-4389,E,,Public,24 hours daily,,,,,,2,,,ChargePoint Network,http://www.chargepoint.com/,GPS,40.638581,-73.998691,4/20/23,206916,2023-04-20 00:30:02 UTC,,,,2/23/22,,,,,J1772,US,,,,Public,,public,,,,,,,,,,,,,,,,,,,,,,,,,,,
ELEC,BORO PARK BORO CHARGE 3,4915 10th Ave,,Borough Park,NY,11219,Brooklyn,,888-758-4389,E,,Public,24 hours daily,,,,,,2,,,ChargePoint Network,http://www.chargepoint.com/,GPS,40.63851,-73.998605,4/20/23,206917,2023-04-20 00:30:02 UTC,,,,2/23/22,,,,,J1772,US,,,,Public,,public,,,,,,,,,,,,,,,,,,,,,,,,,,,
ELEC,BORO PARK BORO CHARGE 2,4915 10th Ave,,Borough Park,NY,11219,Brooklyn,,888-758-4389,E,,Public,24 hours daily,,,,,,2,,,ChargePoint Network,http://www.chargepoint.com/,GPS,40.638594,-73.998676,4/20/23,206918,2023-04-20 00:30:02 UTC,,,,2/23/22,,,,,J1772,US,,,,Public,,public,,,,,,,,,,,,,,,,,,,,,,,,,,,
ELEC,INDUSTRY CITY LOT B EAST,533 2nd Ave,,Brooklyn,NY,11232,Brooklyn,,888-758-4389,E,,Public,24 hours daily,,,,,,2,,,ChargePoint Network,http://www.chargepoint.com/,GPS,40.659338,-74.006454,4/20/23,217354,2023-04-20 00:14:32 UTC,,,,5/12/22,,,,,J1772,US,,,,Public,,public,,,,,,,,,,,,,,,,,,,,,,,,,,,
ELEC,BORO PARK BORO CHARGE 7,4915 10th Ave,,Borough Park,NY,11219,Brooklyn,,888-758-4389,E,,Public,24 hours daily,,,,,,2,,,ChargePoint Network,http://www.chargepoint.com/,GPS,40.638545,-73.998658,4/20/23,220319,2023-04-20 00:30:03 UTC,,,,5/28/22,,,,,J1772,US,,,,Public,,public,,,,,,,,,,,,,,,,,,,,,,,,,,,
ELEC,BRT STATION 1,6401 6th Ave,,Sunset Park,NY,11220,Brooklyn,,888-758-4389,E,,Public,24 hours daily,,,,,,2,,,ChargePoint Network,http://www.chargepoint.com/,GPS,40.63557,-74.01628,4/20/23,220960,2023-04-20 00:31:18 UTC,,,,6/8/22,,,,,J1772,US,,,,Public,,public,,,,,,,,,,,,,,,,,,,,,,,,,,,
ELEC,HCBR STATION 1,9013 4th Ave,,Brooklyn,NY,11209,Brooklyn,,888-758-4389,E,,Public,24 hours daily,,,,,,1,,,ChargePoint Network,http://www.chargepoint.com/,GPS,40.619335,-74.029466,4/20/23,221556,2023-04-20 00:31:00 UTC,,,,6/21/22,,,,,J1772,US,,,,Public,,public,,,,,,,,,,,,,,,,,,,,,,,,,,,
ELEC,266 13th St,266 13th St,,Brooklyn,NY,11215,Brooklyn,,888-356-8911,E,,Public,24 hours daily,,,,,,2,,,FLO,https://flo.ca/,GPS,40.667017,-73.988698,4/20/23,222574,2023-04-20 01:05:23 UTC,,,,7/7/22,,,,,J1772,US,,,,Public,,public,,,,,,,,,,,,,,,,,,,,,,,,,,,
ELEC,Rapid Park - 44 State St,44 State St,,Brooklyn,NY,11201,Brooklyn,,844-623-1001,E,,Public,24 hours daily,A CREDIT D M V,,,,,6,,,LIVINGSTON,https://www.solution.energy,GPS,40.6918,-73.99829,7/12/22,223100,2023-02-14 15:54:11 UTC,P,,,10/28/21,,,,,J1772,US,,,,Public,,public,,,PAY_GARAGE,,,,,,,,,,,,,,,,,FALSE,,,,,,,
ELEC,906 Union St,906 Union St,,Brooklyn,NY,11215,Brooklyn,,844-623-1001,E,,Public,24 hours daily,A CREDIT D M V,,,,,4,,,LIVINGSTON,https://www.solution.energy,GPS,40.67283,-73.97175,7/12/22,223116,2023-02-14 15:54:11 UTC,P,,,2/10/22,,,,,J1772,US,,,,Public,,public,,,PAY_GARAGE,,,,,,,,,,,,,,,,,FALSE,,,,,,,
ELEC,Supercharge NYC,1074 Grand St,,Brooklyn,NY,11211,Brooklyn,,800-636-0986,E,,Public,24 hours daily; Also accepts payment via the ChargeLab mobile app,A CREDIT D Debit M V Voyager Wright_Exp,,,,,2,2,,CHARGELAB,http://www.chargelab.co/,GPS,40.71360447,-73.93309886,9/14/22,223588,2023-02-14 15:54:11 UTC,P,,,7/26/22,,,,,J1772 J1772COMBO,US,,,,Public,,public,,,STANDALONE_STATION,,,,,,,$0.43 per kWh,,,,,,,,,NONE,FALSE,,,,,,,
ELEC,40 N 4th St Apartments,40 N 4th ST,,Brooklyn,NY,11249,Brooklyn,,888-998-2546,E,,Public,,,,,,,16,,,Blink Network,http://www.blinkcharging.com/,GPS,40.718391,-73.963339,4/19/23,224261,2023-04-19 23:59:29 UTC,,,,7/22/22,,,,,J1772,US,,,,Public,,public,,,,,,,,,,Free,,,,,,,,,,,,,,,,,
ELEC,535 Carlton Ave,535 Carlton Ave,,Brooklyn,NY,11238,Brooklyn,,844-623-1001,E,,Public - Credit card at all times,24 hours daily,A CREDIT D M V,,,,,4,,,LIVINGSTON,https://www.solution.energy,GPS,40.68092,-73.97076,9/14/22,225118,2023-02-14 15:54:11 UTC,P,,,7/8/22,,,,,J1772,US,,,,Public - Carte de crédit en tout temps,,public,CREDIT_CARD_ALWAYS,,PARKING_GARAGE,,,,,,,,,,,,,,,,,FALSE,,,,,,,
ELEC,35 Red Cross Pl,35 Red Cross Pl,,Brooklyn,NY,11201,Brooklyn,,888-356-8911,E,,Public,24 hours daily,,,,,,6,,,FLO,https://flo.ca/,GPS,40.6994875,-73.9895156,4/20/23,226846,2023-04-20 01:05:23 UTC,,,,9/1/22,,,,,J1772,US,,,,Public,,public,,,,,,,,,,,,,,,,,,,,,,,,,,,
ELEC,Walgreens,589 Prospect Ave,,Brooklyn,NY,11215,Brooklyn,,877-455-3833,E,,Public,24 hours daily,,,,,,,1,,eVgo Network,https://www.evgo.com/,GPS,40.656459,-73.977527,4/18/23,228330,2023-04-18 23:56:01 UTC,,,,3/7/18,,,,,CHADEMO J1772COMBO,US,,,,Public,,public,,,,,,,,,,,,,,,,,,,,,,,,,,,
ELEC,King's County Parking,581 Clarkson Ave,,Brooklyn,NY,11203,Brooklyn,,833-692-6787,E,,Public - Credit card at all times,Contact station for hours of availability.,A ANDROID_PAY APPLE_PAY CREDIT D M,,,,,4,,,AMPUP,https://ampup.io/,200-9,40.656148,-73.940355,10/11/22,229922,2023-02-14 15:54:11 UTC,P,,,9/15/22,,,,,J1772,US,,,,Public - Carte de crédit en tout temps,,public,CREDIT_CARD_ALWAYS,,PARKING_GARAGE,,,,,,,,,,,,,,,,,FALSE,,,,,,,
ELEC,New Tech Energy,800 Ocean Pkwy,,Brooklyn,NY,11230,Brooklyn,,833-692-6787,E,,Public - Credit card at all times,Contact station for hours of availability.,A ANDROID_PAY APPLE_PAY CREDIT D M,,,,,1,,,AMPUP,https://ampup.io/,200-9,40.628872,-73.971992,10/11/22,230231,2023-02-14 15:54:11 UTC,P,,,9/15/22,,,,,J1772,US,,,,Public - Carte de crédit en tout temps,,public,CREDIT_CARD_ALWAYS,,OFFICE_BLDG,,,,,,,,,,,,,,,,,FALSE,,,,,,,
ELEC,Brooklyn Renaissance Plaza,335 Adams St,,Brooklyn,NY,11201,Brooklyn,,866-816-7584,E,,Public,,,,,,,6,,,EV Connect,http://evconnect.com/,GPS,40.693463,-73.988245,4/20/23,230783,2023-04-20 01:24:28 UTC,,,,9/30/22,,,,,J1772,US,,,,Public,,public,,,,,,,,,,,,,,,,,,,,,,,,,,,
ELEC,BNY - Building 6,63 Flushing Ave,,Brooklyn,NY,11205,Brooklyn,,866-816-7584,E,,Public,,,,,,,1,,,EV Connect,http://evconnect.com/,GPS,40.699256,-73.969305,4/20/23,230787,2023-04-20 01:24:28 UTC,,,,9/30/22,,,,,J1772,US,,,,Public,,public,,,,,,,,,,,,,,,,,,,,,,,,,,,
ELEC,BNY - Building 292,63 Flushing Ave,,Brooklyn,NY,11205,Brooklyn,,866-816-7584,E,,Public,,,,,,,2,,,EV Connect,http://evconnect.com/,GPS,40.705481,-73.972208,4/20/23,230788,2023-04-20 01:24:28 UTC,,,,9/30/22,,,,,J1772,US,,,,Public,,public,,,,,,,,,,,,,,,,,,,,,,,,,,,
ELEC,New York Presbyterian Hospital,510 5th St,,Brooklyn,NY,11215,Brooklyn,,866-816-7584,E,,Public,,,,,,,8,,,EV Connect,http://evconnect.com/,GPS,40.668552,-73.97869,4/20/23,230870,2023-04-20 01:24:50 UTC,,,,9/30/22,,,,,J1772,US,,,,Public,,public,,,,,,,,,,,,,,,,,,,,,,,,,,,
ELEC,IKEA USA BROOKLYN 1,1 Beard St,,Red Hook,NY,11231,Brooklyn,,888-758-4389,E,,Public,24 hours daily,,,,,,1,,,ChargePoint Network,http://www.chargepoint.com/,GPS,40.671397,-74.011643,4/20/23,252884,2023-04-20 00:30:16 UTC,,,,2/1/23,,,,,J1772,US,,,,Public,,public,,,,,,,,,,,,,,,,,,,,,,,,,,,
ELEC,IKEA USA BROOKLYN 2,1 Beard St,,Red Hook,NY,11231,Brooklyn,,888-758-4389,E,,Public,24 hours daily,,,,,,1,,,ChargePoint Network,http://www.chargepoint.com/,GPS,40.671379,-74.011649,4/20/23,252885,2023-04-20 00:30:16 UTC,,,,2/1/23,,,,,J1772,US,,,,Public,,public,,,,,,,,,,,,,,,,,,,,,,,,,,,
ELEC,IKEA USA BROOKLYN 3,1 Beard St,,Red Hook,NY,11231,Brooklyn,,888-758-4389,E,,Public,24 hours daily,,,,,,1,,,ChargePoint Network,http://www.chargepoint.com/,GPS,40.671393,-74.011584,4/20/23,252886,2023-04-20 00:30:16 UTC,,,,2/1/23,,,,,J1772,US,,,,Public,,public,,,,,,,,,,,,,,,,,,,,,,,,,,,
ELEC,IKEA USA BROOKLYN 4,1 Beard St,,Red Hook,NY,11231,Brooklyn,,888-758-4389,E,,Public,24 hours daily,,,,,,1,,,ChargePoint Network,http://www.chargepoint.com/,GPS,40.671404,-74.011655,4/20/23,252887,2023-04-20 00:30:16 UTC,,,,2/1/23,,,,,J1772,US,,,,Public,,public,,,,,,,,,,,,,,,,,,,,,,,,,,,
ELEC,Carnegie Management,1544 Ocean Pkwy,,Brooklyn,NY,11230,Brooklyn,,888-998-2546,E,,Public,,,,,,,1,,,Blink Network,http://www.blinkcharging.com/,GPS,40.61095,-73.968547,4/19/23,257450,2023-04-19 23:59:29 UTC,,,,3/30/23,,,,,J1772,US,,,,Public,,public,,,,,,,,,,,,,,,,,,,,,,,,,,,
ELEC,3000 Ocean Pkwy Apartments 2,3000 Ocean Parkway,,Brooklyn,NY,11235,Brooklyn,,888-998-2546,E,,Public,,,,,,,1,,,Blink Network,http://www.blinkcharging.com/,GPS,40.577592,-73.969165,4/19/23,257453,2023-04-19 23:58:50 UTC,,,,3/30/23,,,,,J1772,US,,,,Public,,public,,,,,,,,,,,,,,,,,,,,,,,,,,,
ELEC,Kings Bay,2520 Batchelder St,,Brooklyn,NY,11235,Brooklyn,,888-998-2546,E,,Public,,,,,,,24,,,Blink Network,http://www.blinkcharging.com/,GPS,40.59164,-73.93749,4/19/23,257458,2023-04-19 23:58:59 UTC,,,,3/30/23,,,,,J1772,US,,,,Public,,public,,,,,,,,,,,,,,,,,,,,,,,,,,,
ELEC,550 Prospect Place,550 Prospect Place,,Brooklyn,NY,11238,Brooklyn,,888-998-2546,E,,Public,,,,,,,7,,,Blink Network,http://www.blinkcharging.com/,GPS,40.675159,-73.958501,4/19/23,257489,2023-04-19 00:00:19 UTC,,,,3/30/23,,,,,J1772,US,,,,Public,,public,,,,,,,,,,,,,,,,,,,,,,,,,,,
ELEC,444 Clinton,445 Vanderbilt Ave,,Brooklyn,NY,11238,Brooklyn,,888-998-2546,E,,Public,,,,,,,17,,,Blink Network,http://www.blinkcharging.com/,GPS,40.684979,-73.967922,4/19/23,257492,2023-04-19 23:59:29 UTC,,,,3/30/23,,,,,J1772,US,,,,Public,,public,,,,,,,,,,,,,,,,,,,,,,,,,,,
ELEC,Superior Realty Group,9602 4th Avenue,,Brooklyn,NY,11209,Brooklyn,,888-998-2546,E,,Public,,,,,,,4,,,Blink Network,http://www.blinkcharging.com/,GPS,40.615179,-74.031984,4/19/23,257758,2023-04-19 23:59:30 UTC,,,,3/31/23,,,,,J1772,US,,,,Public,,public,,,,,,,,,,,,,,,,,,,,,,,,,,,
ELEC,Rockaway Nissan,600 Burnside Ave,,Inwood,NY,11096,Queens,,516-239-0100,E,,Public - Call ahead,Dealership business hours,,,,,,1,,,Non-Networked,,200-9,40.622268,-73.742699,6/9/20,44336,2023-02-15 22:45:41 UTC,P,,,11/30/11,,,,,J1772,US,,,,Public - Appeler à l'avance,,public,CALL,,CAR_DEALER,,,,,,,Free,,,,,,,,,,FALSE,,,,,,,
ELEC,Astoria Central Parking - Tesla Destination,31-57 31st St,,Astoria,NY,11106,Queens,,718-489-1654  877-798-3752,E,,Public,,,,,,,4,,,Tesla Destination,https://www.tesla.com/destination-charging,200-8,40.762502,-73.924507,10/6/22,114881,2023-01-18 15:15:20 UTC,P,,,7/6/18,,,,,TESLA,US,,,,Public,,public,,,PAY_GARAGE,,,,,,,Free,,,,,,,,,,,,,,,,,
ELEC,MPG 1-50 51st Ave - Tesla Destination,1-50 51st Ave,,Long Island City,NY,11101,Queens,,718-433-1420  877-798-3752,E,,Public,,,,,,,4,,,Tesla Destination,https://www.tesla.com/destination-charging,200-9,40.743049,-73.959245,10/6/22,114968,2023-01-18 15:15:20 UTC,P,,,5/15/18,,,,,TESLA,US,,,,Public,,public,,,PAY_GARAGE,,,,,,,Free,,,,,,,,,,,,,,,,,
ELEC,iPark 43-25 Hunter Street - Tesla Destination,43-25 Hunter St,,Long Island City,NY,11101,Queens,,347-738-6170  877-798-3752,E,,Public,,,,,,,8,,,Tesla Destination,https://www.tesla.com/destination-charging,200-9,40.747589,-73.942612,10/6/22,114969,2023-01-18 15:15:20 UTC,P,,,5/1/18,,,,,TESLA,US,,,,Public,,public,,,PAY_GARAGE,,,,,,,Free,,,,,,,,,,,,,,,,,
ELEC,Little Man Parking (Queens West) - Tesla Destination,4-76 47th Ave,,Long Island City,NY,11109,Queens,,718-606-1760  877-798-3752,E,,Public,,,,,,,3,,,Tesla Destination,https://www.tesla.com/destination-charging,200-8,40.745627,-73.955638,10/6/22,114970,2023-01-18 15:15:20 UTC,P,,,3/9/17,,,,,J1772 TESLA,US,,,,Public,,public,,,PAY_GARAGE,,,,,,,Free,,,,,,,,,,,,,,,,,
ELEC,Quikpark 43-08 Crescent Street - Tesla Destination,43-08 Crescent St,,New York,NY,11101,Queens,,718-433-2433  877-798-3752,E,,Public,,,,,,,3,,,Tesla Destination,https://www.tesla.com/destination-charging,200-8,40.748757,-73.943417,10/6/22,115137,2023-01-18 15:15:20 UTC,P,,,6/13/17,,,,,J1772 TESLA,US,,,,Public,,public,,,PAY_GARAGE,,,,,,,Free,,,,,,,,,,,,,,,,,
ELEC,MTP Parking 31-00 47th Ave - Tesla Destination,31-00 47th Ave,,Long Island City,NY,11101,Queens,,718-729-3615  877-798-3752,E,,Public,,,,,,,4,,,Tesla Destination,https://www.tesla.com/destination-charging,200-8,40.7416517,-73.9361599,10/6/22,122487,2023-01-18 15:15:20 UTC,P,,,1/17/19,,,,,TESLA,US,,,,Public,,public,,,,,,,,,,Free,,,,,,,,,,,,,,,,,
ELEC,MTP Parking 41-42 24th Street - Tesla Destination,41-42 24th St,,Long Island City,NY,11101,Queens,,347-410-4910  877-798-3752,E,,Public,,,,,,,4,,,Tesla Destination,https://www.tesla.com/destination-charging,200-9,40.7515557,-73.9414058,10/6/22,122488,2023-01-18 15:15:20 UTC,P,,,1/17/19,,,,,TESLA,US,,,,Public,,public,,,,,,,,,,Free,,,,,,,,,,,,,,,,,
ELEC,CITYLIGHTS QUEENS LANDING,4-74 48th Ave,,Long Island City,NY,11109,Queens,,888-758-4389,E,,Public,24 hours daily,,,,,,2,,,ChargePoint Network,http://www.chargepoint.com/,GPS,40.745011,-73.957424,4/20/23,144109,2023-04-20 00:16:50 UTC,,,,8/28/19,,,,,J1772,US,,,,Public,,public,,,,,,,,,,,,,,,,,,,,,,,,,,,
ELEC,PV Parking 34-11 Steinway - Tesla Destination,34-11 Steinway St,,Astoria,NY,11101,Queens,,718-609-1200  877-798-3752,E,,Public,,,,,,,4,,,Tesla Destination,https://www.tesla.com/destination-charging,200-9,40.7560685,-73.9204663,10/6/22,150584,2023-01-18 15:15:20 UTC,P,,,3/31/19,,,,,TESLA,US,,,,Public,,public,,,,,,,,,,Free,,,,,,,,,,,,,,,,,
ELEC,"Sylvan Parking 23-25 31st St, Astoria - Tesla Destination",23-25 31st St,,Astoria,NY,11105,Queens,,718-204-5005  877-798-3752,E,,Public,,,,,,,4,,,Tesla Destination,https://www.tesla.com/destination-charging,200-9,40.77364,-73.91352,10/6/22,150585,2023-01-18 15:15:20 UTC,P,,,3/30/19,,,,,TESLA,US,,,,Public,,public,,,,,,,,,,Free,,,,,,,,,,,,,,,,,
ELEC,4545 Center Blvd-TF Cornerstone LIC - Tesla Destination,4545 Center Blvd,,Long Island City,NY,11109,Queens,,718-440-3408  877-798-3752,E,,Public,,,,,,,8,,,Tesla Destination,https://www.tesla.com/destination-charging,200-9,40.747676,-73.956012,10/6/22,150600,2023-01-18 15:15:20 UTC,P,,,3/30/19,,,,,TESLA,US,,,,Public,,public,,,,,,,,,,Free,,,,,,,,,,,,,,,,,
ELEC,ProPark 29-10 Broadway - Tesla Destination,29-10 Broadway,,Astoria,NY,11106,Queens,,718-728-0460  877-798-3752,E,,Public,,,,,,,4,,,Tesla Destination,https://www.tesla.com/destination-charging,200-9,40.7623317,-73.9269683,10/6/22,150616,2023-01-18 15:15:20 UTC,P,,,1/17/19,,,,,TESLA,US,,,,Public,,public,,,,,,,,,,Free,,,,,,,,,,,,,,,,,
ELEC,19-80 Steinway - Tesla Destination,1980 Steinway St,,Astoria,NY,11105,Queens,,347-697-6733  877-798-3752,E,,Public,,,,,,,4,,,Tesla Destination,https://www.tesla.com/destination-charging,200-8,40.776957,-73.90115,10/6/22,150649,2023-01-18 15:15:20 UTC,P,,,7/6/18,,,,,TESLA,US,,,,Public,,public,,,,,,,,,,Free,,,,,,,,,,,,,,,,,
ELEC,2702 Queens Plaza South - Tesla Destination,2702 Queens Plaza S,,Long Island City,NY,11101,Queens,,718-864-2992  877-798-3752,E,,Public,,,,,,,6,,,Tesla Destination,https://www.tesla.com/destination-charging,200-9,40.749941,-73.939887,10/6/22,150653,2023-01-18 15:15:20 UTC,P,,,5/21/18,,,,,TESLA,US,,,,Public,,public,,,,,,,,,,Free,,,,,,,,,,,,,,,,,
ELEC,"The Ritz-Carlton Residences, Long Island - Tesla Destination",6000 Royal Court,,North Hills,NY,11040,Queens,,  877-798-3752,E,,Public,,,,,,,12,,,Tesla Destination,https://www.tesla.com/destination-charging,200-9,40.76978,-73.688118,10/6/22,169195,2023-01-18 15:15:20 UTC,P,,,8/8/16,,,,,J1772 TESLA,US,,,,Public,,public,,,,,,,,,,Free,,,,,,,,,,,,,,,,,
ELEC,Hunters Point South Crossing,1-55 Borden Avenue,Enter via. Borden Ave.||,Long Island City,NY,11101,Queens,,888-998-2546,E,,Public,,,,,,,2,,,Blink Network,http://www.blinkcharging.com/,GPS,40.742397,-73.959225,4/19/23,191469,2023-04-19 23:58:54 UTC,,,,6/24/21,,,,,J1772,US,,,,Public,,public,,,,,,,,,,Free,,,,,,,,,,,,,,,,,
ELEC,35-1 38th St,35-1 38th St,,Long Island City,NY,11101,Queens,,888-356-8911,E,,Public,24 hours daily,,,,,,4,,,FLO,https://flo.ca/,GPS,40.755417,-73.923072,4/20/23,193925,2023-04-20 01:05:23 UTC,,,,8/14/21,,,,,J1772,US,,,,Public,,public,,,,,,,,,,,,,,,,,,,,,,,,,,,
ELEC,31-99 33rd St,31-99 33rd St,,Astoria,NY,11106,Queens,,888-356-8911,E,,Public,24 hours daily,,,,,,2,,,FLO,https://flo.ca/,GPS,40.761412,-73.923755,4/20/23,193926,2023-04-20 01:05:23 UTC,,,,8/14/21,,,,,J1772,US,,,,Public,,public,,,,,,,,,,,,,,,,,,,,,,,,,,,
ELEC,Stop & Shop #2590,460 Franklin Ave,,Franklin Square,NY,11010,Queens,,888-264-2208,E,,Public,Mon 5:00am - 10:59pm; Tue 5:00am - 10:59pm; Wed 5:00am - 10:59pm; Thu 5:00am - 10:59pm; Fri 5:00am - 10:59pm; Sat 5:00am - 10:59pm; Sun 5:00am - 10:59pm,,,,,,2,,,Volta,https://voltacharging.com/,GPS,40.6950035,-73.683338,4/20/23,200618,2023-04-20 01:26:56 UTC,,,,11/1/21,,,,,J1772,US,,,,Public,,public,,,,,,,,,,,,,,,,,,,,FALSE,,,,,,,
ELEC,33-10 Queens Blvd,33-10 Queens Blvd,,Queens,NY,11101,Queens,,888-356-8911,E,,Public,24 hours daily,,,,,,4,,,FLO,https://flo.ca/,GPS,40.7443625,-73.93112013,4/20/23,204691,2023-04-20 01:05:23 UTC,,,,1/12/22,,,,,J1772,US,,,,Public,,public,,,,,,,,,,,,,,,,,,,,,,,,,,,
ELEC,G & M REALTY 2 STATION 2,22-44 Jackson Ave,,LIC,NY,11101,Queens,,888-758-4389,E,,Public,24 hours daily,,,,,,2,,,ChargePoint Network,http://www.chargepoint.com/,GPS,40.745401,-73.946148,4/20/23,223833,2023-04-20 00:32:06 UTC,,,,7/21/22,,,,,J1772,US,,,,Public,,public,,,,,,,,,,,,,,,,,,,,,,,,,,,
ELEC,G & M REALTY 2 STATION 4,22-44 Jackson Ave,,LIC,NY,11101,Queens,,888-758-4389,E,,Public,24 hours daily,,,,,,2,,,ChargePoint Network,http://www.chargepoint.com/,GPS,40.745344,-73.94618,4/20/23,223835,2023-04-20 00:32:07 UTC,,,,7/21/22,,,,,J1772,US,,,,Public,,public,,,,,,,,,,,,,,,,,,,,,,,,,,,
ELEC,G & M REALTY 2 STATION 5,22-44 Jackson Ave,,LIC,NY,11101,Queens,,888-758-4389,E,,Public,24 hours daily,,,,,,2,,,ChargePoint Network,http://www.chargepoint.com/,GPS,40.745355,-73.94625,4/20/23,223836,2023-04-20 00:32:07 UTC,,,,7/21/22,,,,,J1772,US,,,,Public,,public,,,,,,,,,,,,,,,,,,,,,,,,,,,
ELEC,Court Square Municipal Parking Garage,45 Court Square,,Long Island,NY,11101,Queens,,866-816-7584,E,,Public,,,,,,,7,3,,EV Connect,http://evconnect.com/,GPS,40.745475,-73.942225,4/20/23,224171,2023-04-20 01:24:31 UTC,,,,7/16/22,,,,,CHADEMO J1772 J1772COMBO,US,,,,Public,,public,,,,,,,,,,,,,,,,,,,,,,,,,,,
ELEC,G & M REALTY 2 STATION 1,22-44 Jackson Ave,,LIC,NY,11101,Queens,,888-758-4389,E,,Public,24 hours daily,,,,,,2,,,ChargePoint Network,http://www.chargepoint.com/,GPS,40.745393,-73.946234,4/20/23,224248,2023-04-20 00:32:06 UTC,,,,7/22/22,,,,,J1772,US,,,,Public,,public,,,,,,,,,,,,,,,,,,,,,,,,,,,
ELEC,30-10 35th Street,30-10 35th Street,,Queens,NY,11103,Queens,,888-356-8911,E,,Public,24 hours daily,,,,,,2,,,FLO,https://flo.ca/,GPS,40.7652332,-73.9184356,4/20/23,225576,2023-04-20 01:05:23 UTC,,,,8/16/22,,,,,J1772,US,,,,Public,,public,,,,,,,,,,,,,,,,,,,,,,,,,,,
ELEC,South Shore Chrysler Dodge Jeep RAM,190 Sheridan Blvd,,Inwood,NY,11096,Queens,,516-430-5834,E,,Public - Credit card at all times,24 hours daily,A D Debit M V,,,,,1,,,Non-Networked,,GPS,40.61637995,-73.75135725,9/14/22,226482,2023-02-14 15:54:11 UTC,P,,,8/22/22,,,,,J1772,US,,,,Public - Carte de crédit en tout temps,,public,CREDIT_CARD_ALWAYS,,CAR_DEALER,,,,,,,,,,,,,,,,,FALSE,,,,,,,
ELEC,46-71 30th Place,46-71 30th Place,,Long Island City,NY,11101,Queens,,888-356-8911,E,,Public,24 hours daily,,,,,,6,,,FLO,https://flo.ca/,GPS,40.743643,-73.936591,4/20/23,226845,2023-04-20 01:05:23 UTC,,,,9/1/22,,,,,J1772,US,,,,Public,,public,,,,,,,,,,,,,,,,,,,,,,,,,,,
ELEC,Long Island Jewish Medical Center,270-05 76th Ave,,New Hyde Park,NY,11040,Queens,,866-816-7584,E,,Public,,,,,,,8,,,EV Connect,http://evconnect.com/,GPS,40.753285,-73.70707,4/20/23,230801,2023-04-20 01:24:32 UTC,,,,9/30/22,,,,,J1772,US,,,,Public,,public,,,,,,,,,,,,,,,,,,,,,,,,,,,
ELEC,"bp - New Hyde Park, NY (2298 Jericho Turnpike)",2298 Jericho Turnpike,,New Hyde Park,NY,11040,Queens,,866-816-7584,E,,Public,,,,,,,,2,,EV Connect,http://evconnect.com/,GPS,40.740992,-73.662543,4/20/23,231033,2023-04-20 01:25:04 UTC,,,,9/30/22,,,,,CHADEMO J1772COMBO,US,,,,Public,,public,,,,,,,,,,,,,,,,,,,,,,,,,,,
ELEC,The Forge,44-28 Purves St,"Residents ONLY
Residents ONLY||",Long Island City,NY,11101,Queens,,888-998-2546,E,,Public,,,,,,,2,,,Blink Network,http://www.blinkcharging.com/,GPS,40.74679,-73.94111,4/19/23,241192,2023-04-19 23:58:23 UTC,,,,1/6/23,,,,,J1772,US,,,,Public,,public,,,,,,,,,,Free,,,,,,,,,,,,,,,,,
ELEC,GREATNECK PLAZA PLAZA CENTER,2 Gussack Plaza,,Great Neck,NY,11022,Queens,,888-758-4389,E,,Public,24 hours daily,,,,,,2,,,ChargePoint Network,http://www.chargepoint.com/,GPS,40.787424,-73.729999,4/20/23,250806,2023-04-20 00:08:25 UTC,,,,1/17/23,,,,,J1772,US,,,,Public,,public,,,,,,,,,,,,,,,,,,,,,,,,,,,
ELEC,AKAM Associates,25-21 43rd Avenue,,Long Island City,NY,11101,Queens,,888-998-2546,E,,Public,,,,,,,4,,,Blink Network,http://www.blinkcharging.com/,GPS,40.748547,-73.941626,4/20/23,252551,2023-04-20 00:00:18 UTC,,,,1/27/23,,,,,J1772,US,,,,Public,,public,,,,,,,,,,Free,,,,,,,,,,,,,,,,,
ELEC,26-19 2nd Street,26-19 2nd Street,,Astoria,NY,11102,Queens,,888-998-2546,E,,Public,,,,,,,2,,,Blink Network,http://www.blinkcharging.com/,GPS,40.776289,-73.934466,4/19/23,257491,2023-04-19 23:59:29 UTC,,,,3/30/23,,,,,J1772,US,,,,Public,,public,,,,,,,,,,,,,,,,,,,,,,,,,,,
ELEC,Gregoris Motors,555 W Merrick Rd,,Valley Stream,NY,11580,Queens,,516-825-8700,E,,Public - Call ahead,Dealership business hours,,,,,,1,,,Non-Networked,,200-9,40.670497,-73.717206,6/9/20,44201,2023-02-15 22:45:41 UTC,P,,,11/30/11,,,,,J1772,US,,,,Public - Appeler à l'avance,,public,CALL,,CAR_DEALER,,,,,,,Free,,,,,,,,,,FALSE,,,,,,,
ELEC,Nissan of Westbury,939 Old Country Rd,,Westbury,NY,11590,Queens,,516-338-5600,E,,Public - Call ahead,Dealership business hours,,,,,,1,1,,Non-Networked,,200-8,40.753954,-73.561974,6/9/20,44212,2023-02-15 22:45:41 UTC,P,,,11/30/11,,,,,CHADEMO J1772,US,,,,Public - Appeler à l'avance,,public,CALL,,CAR_DEALER,,,,,,,Free,,,,,,,,,,FALSE,,,,,,,
ELEC,Star Nissan,20602 Northern Blvd,,Bayside,NY,11361,Queens,,718-423-0500,E,,Public - Call ahead,Dealership business hours,,,,,,1,,,Non-Networked,,200-8,40.758245,-73.776954,6/9/20,44323,2023-02-15 22:45:41 UTC,P,,,11/30/11,,,,,J1772,US,,,,Public - Appeler à l'avance,,public,CALL,,CAR_DEALER,,,,,,,Free,,,,,,,,,,FALSE,,,,,,,
ELEC,Nemet Motors,153-12 Hillside Ave,,Jamaica,NY,11432,Queens,,718-523-5858,E,,Public - Call ahead,Dealership business hours,,,,,,1,,,Non-Networked,,200-9,40.707242,-73.803844,6/9/20,44342,2023-02-15 22:45:41 UTC,P,,,11/30/11,,,,,J1772,US,,,,Public - Appeler à l'avance,,public,CALL,,CAR_DEALER,,,,,,,Free,,,,,,,,,,FALSE,,,,,,,
ELEC,Nissan - Garden City,316 N Franklin St,,Hempstead,NY,11550,Queens,,,E,,Public - Call ahead,Dealership business hours; contact 516-483-4400 for more information,,,,,,1,1,,Non-Networked,,GPS,40.71693,-73.630152,2/10/22,44346,2022-02-10 19:42:29 UTC,P,,,11/30/11,,,,,CHADEMO J1772,US,,,,Public - Appeler à l'avance,,public,CALL,,CAR_DEALER,,,,,,,Free,,,,,,,,,,FALSE,,,,,,,
ELEC,Baron Nissan,235 Glen Cove Rd,,Greenvale,NY,11548,Queens,,516-621-2300,E,,Public - Call ahead,Dealership business hours,,,,,,1,,,Non-Networked,,GPS,40.816267,-73.625869,6/9/20,47721,2023-02-15 22:45:41 UTC,P,,,1/31/12,,,,,J1772,US,,,,Public - Appeler à l'avance,,public,CALL,,CAR_DEALER,,,,,,,Free,,,,,,,,,,FALSE,,,,,,,
ELEC,Nissan of Queens,9325 Rockaway Blvd,,Ozone Park,NY,11417,Queens,,718-835-8300,E,,Public - Call ahead,Dealership business hours,,,,,,1,,,Non-Networked,,200-9,40.68117,-73.845621,6/9/20,49938,2023-02-15 22:45:41 UTC,P,,,10/25/12,,,,,J1772,US,,,,Public - Appeler à l'avance,,public,CALL,,CAR_DEALER,,,,,,,Free,,,,,,,,,,FALSE,,,,,,,
ELEC,ADELPHI UNIV STATION 01,1 South Ave,,Garden City,NY,11530,Queens,,888-758-4389,E,,Public,24 hours daily,,,,,,2,,,ChargePoint Network,http://www.chargepoint.com/,GPS,40.719618,-73.649987,4/20/23,60739,2023-04-20 00:19:29 UTC,,,,3/14/14,,,,,J1772,US,,,,Public,,public,,,,,,,,,,,,,,,,,,,,,,,,,,,
ELEC,Koeppel Nissan,74-15 Northern Blvd,,Jackson Heights,NY,11372,Queens,,877-505-6334,E,,Public - Call ahead,Dealership business hours,,,,,,2,1,,Non-Networked,,200-9,40.755072,-73.892094,6/9/20,85969,2021-03-11 23:22:17 UTC,P,,,3/1/17,,,,,CHADEMO J1772 J1772COMBO,US,,,,Public - Appeler à l'avance,,public,CALL,,CAR_DEALER,,,,,,,Free,,,,,,,,,,FALSE,,,,,,,
ELEC,JFK Airport Travel Plaza - Tesla Supercharger,150th Ave and 147th St,,Queens,NY,11430,Queens,,877-798-3752,E,,Public,24 hours daily; for Tesla use only,,,,,,,12,,Tesla,https://www.tesla.com/supercharger,GPS,40.66179,-73.79282,10/3/22,102341,2022-12-01 17:40:26 UTC,P,,,12/15/13,,,,,TESLA,US,,,,Public,,public,,,,,,,,,,$0.28 per kWh; $0.26 per minute above 60 kW and $0.13 per minute at or below 60 kW,,,,,,,,,,,,,,,,,
ELEC,Green Acres Commons - Tesla Supercharger,"2034 Green Acres Mall, Sunrise Highway",,Valley Stream,NY,11581,Queens,,877-798-3752,E,,Public,24 hours daily; for Tesla use only,,,,,,,16,,Tesla,https://www.tesla.com/supercharger,200-9,40.664127,-73.7251,10/3/22,102344,2022-12-01 17:40:26 UTC,P,,,7/23/18,,,,,TESLA,US,,,,Public,,public,,,,,,,,,,$0.28 per kWh; $0.26 per minute above 60 kW and $0.13 per minute at or below 60 kW,,,,,,,,,,,,,,,,,
ELEC,Hampton Inn LaGuardia Airport - Tesla Destination,102-40 Ditmars Blvd,,East Elmhurst,NY,11369,Queens,,718-672-6600  877-798-3752,E,,Public,,,,,,,1,,,Tesla Destination,https://www.tesla.com/destination-charging,200-9,40.767948,-73.867784,10/6/22,114937,2023-01-18 15:15:20 UTC,P,,,10/24/16,,,,,TESLA,US,,,,Public,,public,,,HOTEL,,,,,,,Free,,,,,,,,,,,,,,,,,
ELEC,MPG The Shops at Skyview - Tesla Destination,40-24 College Point Blvd,,Flushing,NY,11354,Queens,,212-490-3460  877-798-3752,E,,Public,,,,,,,3,,,Tesla Destination,https://www.tesla.com/destination-charging,200-9,40.75674,-73.836223,10/6/22,114939,2023-01-18 15:15:20 UTC,P,,,2/22/18,,,,,TESLA,US,,,,Public,,public,,,PAY_GARAGE,,,,,,,Free,,,,,,,,,,,,,,,,,
ELEC,Sylvan Pinnacle Garage - Tesla Destination,112-01 Queens Blvd,,Forest Hills,NY,11375,Queens,,718-520-1403  877-798-3752,E,,Public,,,,,,,4,,,Tesla Destination,https://www.tesla.com/destination-charging,200-9,40.718526,-73.83648,10/6/22,114940,2023-01-18 15:15:20 UTC,P,,,7/17/18,,,,,TESLA,US,,,,Public,,public,,,PAY_GARAGE,,,,,,,Free,,,,,,,,,,,,,,,,,
ELEC,Hampton Inn Garden City - Tesla Destination,1 North Ave,,Garden City,NY,11530,Queens,,516-227-2720  877-798-3752,E,,Public,,,,,,,2,,,Tesla Destination,https://www.tesla.com/destination-charging,200-9,40.741248,-73.609369,10/6/22,114943,2023-01-18 15:15:20 UTC,P,,,4/12/16,,,,,TESLA,US,,,,Public,,public,,,HOTEL,,,,,,,Free,,,,,,,,,,,,,,,,,
ELEC,PV Parking 40-07 73rd St - Tesla Destination,40-07 73rd St,,Woodside,NY,11377,Queens,,718-609-1200  877-798-3752,E,,Public,,,,,,,4,,,Tesla Destination,https://www.tesla.com/destination-charging,200-9,40.7464805,-73.8922584,10/6/22,115251,2023-01-18 15:15:20 UTC,P,,,7/6/18,,,,,TESLA,US,,,,Public,,public,,,PAY_GARAGE,,,,,,,Free,,,,,,,,,,,,,,,,,
ELEC,Islandia Shopping Center - Tesla Supercharger,1750 Veterans Hwy,,Islandia,NY,11598,Queens,,877-798-3752,E,,Public,24 hours daily; for Tesla use only,,,,,,,10,,Tesla,https://www.tesla.com/supercharger,GPS,40.804844,-73.180149,10/3/22,116807,2022-12-01 17:40:26 UTC,P,,,12/1/18,,,,,TESLA,US,,,,Public,,public,,,SHOPPING_CENTER,,,,,,,$0.28 per kWh; $0.26 per minute above 60 kW and $0.13 per minute at or below 60 kW,,,,,,,,,,,,,,,,,
ELEC,Queens Center - Tesla Supercharger,90-15 Queens Boulevard,,Queens,NY,11373,Queens,,877-798-3752,E,,Public,24 hours daily; for Tesla use only,,,,,,,10,,Tesla,https://www.tesla.com/supercharger,GPS,40.735082,-73.87067,10/3/22,116809,2022-12-01 17:40:26 UTC,P,,,12/1/18,,,,,TESLA,US,,,,Public,,public,,,SHOPPING_CENTER,,,,,,,$0.28 per kWh; $0.26 per minute above 60 kW and $0.13 per minute at or below 60 kW,,,,,,,,,,,,,,,,,
ELEC,Sylvan Kissena Garage LLC - Tesla Destination,43-70 Kissena Blvd,,Flushing,NY,11355,Queens,,718-463-2070  877-798-3752,E,,Public,,,,,,,4,,,Tesla Destination,https://www.tesla.com/destination-charging,200-9,40.7538611,-73.823669,10/6/22,122481,2023-01-18 15:15:20 UTC,P,,,11/30/18,,,,,TESLA,US,,,,Public,,public,,,,,,,,,,Free,,,,,,,,,,,,,,,,,
ELEC,Excel Parking 87-10 Northern Blvd - Tesla Destination,87-10 Northern Blvd,,Jackson Heights,NY,11372,Queens,,718-424-6555  877-798-3752,E,,Public,,,,,,,4,,,Tesla Destination,https://www.tesla.com/destination-charging,200-9,40.755839,-73.8806563,10/6/22,122482,2023-01-18 15:15:20 UTC,P,,,1/17/19,,,,,TESLA,US,,,,Public,,public,,,,,,,,,,Free,,,,,,,,,,,,,,,,,
ELEC,125-10 Queens Blvd Garage - Tesla Destination,123 83rd Ave,,Kew Gardens,NY,11415,Queens,,718-793-7498  877-798-3752,E,,Public,,,,,,,4,,,Tesla Destination,https://www.tesla.com/destination-charging,GPS,40.7119045,-73.8267727,10/6/22,122483,2023-01-18 15:15:20 UTC,P,,,11/30/18,,,,,TESLA,US,,,,Public,,public,,,,,,,,,,Free,,,,,,,,,,,,,,,,,
ELEC,Queens Family Court Municipal Garage,150-07 Archer Street,,Queens,NY,11433,Queens,,866-816-7584,E,,Public,,,,,,,3,,,EV Connect,http://evconnect.com/,GPS,40.701647,-73.803843,4/20/23,123069,2023-04-20 01:24:32 UTC,,,,4/1/19,,,,,J1772,US,,,,Public,,public,,,,,,,,,,,,,,,,,,,,,,,,,,,
ELEC,Queens college,65-30 Kissena Blvd; Kiely Hall 711,,Queens,NY,11367,Queens,,866-816-7584,E,,Public,,,,,,,8,,,EV Connect,http://evconnect.com/,GPS,40.735874,-73.815819,4/20/23,123127,2023-04-20 01:24:21 UTC,,,,4/1/19,,,,,J1772,US,,,,Public,,public,,,,,,,,,,,,,,,,,,,,,,,,,,,
ELEC,Queensboro Hall,80-25 126th St,,Queens,NY,11415,Queens,,866-816-7584,E,,Public,,,,,,,4,,,EV Connect,http://evconnect.com/,GPS,40.714376,-73.826095,4/20/23,123134,2023-04-20 01:24:34 UTC,,,,4/1/19,,,,,J1772,US,,,,Public,,public,,,,,,,,,,,,,,,,,,,,,,,,,,,
ELEC,Nassau Community College,One Education Drive,,Garden City,NY,11530,Queens,,866-816-7584,E,,Public,,,,,,,6,,,EV Connect,http://evconnect.com/,GPS,40.730794,-73.591287,4/20/23,123145,2023-04-20 01:24:28 UTC,,,,4/1/19,,,,,J1772,US,,,,Public,,public,,,,,,,,,,,,,,,,,,,,,,,,,,,
ELEC,RXR REALTY OMNI,333 Earle Ovington Blvd,,Uniondale,NY,11553,Queens,,888-758-4389,E,,Public,24 hours daily,,,,,,2,,,ChargePoint Network,http://www.chargepoint.com/,GPS,40.725338,-73.593701,4/20/23,143209,2023-04-20 00:16:30 UTC,,,,8/15/19,,,,,J1772,US,,,,Public,,public,,,,,,,,,,,,,,,,,,,,,,,,,,,
ELEC,GARDEN CHARGERS JOVIA #5,1000 Corporate Dr,,Westbury,NY,11590,Queens,,888-758-4389,E,,Public,24 hours daily,,,,,,2,,,ChargePoint Network,http://www.chargepoint.com/,GPS,40.740231,-73.601034,4/20/23,145671,2023-04-20 00:17:27 UTC,,,,10/1/19,,,,,J1772,US,,,,Public,,public,,,,,,,,,,,,,,,,,,,,,,,,,,,
ELEC,Shops at Skyview center,"40-24 College Point Blvd, Suite B215",,Flushing,NY,11354,Queens,,833-632-2778,E,,Public,24 hours daily,,,,,,1,3,,Electrify America,https://www.electrifyamerica.com/,GPS,40.75619,-73.8363,4/20/23,146876,2023-04-20 00:40:58 UTC,,,,10/11/19,,,,,CHADEMO J1772 J1772COMBO,US,,,,Public,,public,,,,,,,,,,,,,,,,,,,,,,,,,,,
ELEC,Queens Center Mall,90-15 Queens Blvd.,,Elmhurst,NY,11373,Queens,,833-632-2778,E,,Public,24 hours daily,,,,,,1,3,,Electrify America,https://www.electrifyamerica.com/,GPS,40.73487,-73.87038,4/20/23,147204,2023-04-20 00:40:48 UTC,,,,10/24/19,,,,,CHADEMO J1772 J1772COMBO,US,,,,Public,,public,,,,,,,,,,,,,,,,,,,,,,,,,,,
ELEC,BottleBuys,350 Glen Head Road,"Store hours
Mon - Sat 10am-8pm Sun Noon-5pm
FREE During business hours
$2.00 per hour when closed",Glen Head,NY,11545,Queens,,800-663-5633,E,,Public,24 hours daily,,,,,,2,,,SemaCharge Network,https://semaconnect.com/,GPS,40.837574,-73.614379,4/20/23,148164,2023-04-20 00:00:37 UTC,,,,11/27/14,,,,,J1772,US,,,,Public,,public,,,,,,,,,,"$2.00/Hr Parking Fee , $0.00-$1.00/kWh Variable Energy Fee",,,,,,,,,,,,,,,,,
ELEC,The Shops at Atlas Park - Tesla Supercharger,8000 Cooper Avenue,,Glendale,NY,11385,Queens,,877-798-3752,E,,Public,24 hours daily; for Tesla use only,,,,,,,10,,Tesla,https://www.tesla.com/supercharger,200-9,40.707998,-73.866983,10/3/22,149312,2022-12-01 17:40:26 UTC,P,,,9/30/19,,,,,TESLA,US,,,,Public,,public,,,,,,,,,,$0.28 per kWh; $0.26 per minute above 60 kW and $0.13 per minute at or below 60 kW,,,,,,,,,,,,,,,,,
ELEC,East West Tower Garage - Tesla Destination,142-38 37th Ave,,Flushing,NY,11354,Queens,,718-228-4324  877-798-3752,E,,Public,,,,,,,4,,,Tesla Destination,https://www.tesla.com/destination-charging,200-8,40.762331,-73.825583,10/6/22,150531,2023-01-18 15:15:20 UTC,P,,,8/28/19,,,,,TESLA,US,,,,Public,,public,,,,,,,,,,Free,,,,,,,,,,,,,,,,,
ELEC,MPG Parking 98-41 Queens Blvd - Tesla Destination,98-59 65th Rd,,Rego Park,NY,11374,Queens,,718-997-0630  877-798-3752,E,,Public,,,,,,,4,,,Tesla Destination,https://www.tesla.com/destination-charging,200-8,40.728618,-73.856054,10/6/22,150577,2023-01-18 15:15:20 UTC,P,,,3/31/19,,,,,TESLA,US,,,,Public,,public,,,,,,,,,,Free,,,,,,,,,,,,,,,,,
ELEC,LAZ Parking 133-59 Roosevelt Ave - Tesla Destination,133-59 Roosevelt Ave,,Flushing,NY,11354,Queens,,718-888-1234  877-798-3752,E,,Public,,,,,,,4,,,Tesla Destination,https://www.tesla.com/destination-charging,200-8,40.758956,-73.832331,10/6/22,150578,2023-01-18 15:15:20 UTC,P,,,3/31/19,,,,,TESLA,US,,,,Public,,public,,,,,,,,,,Free,,,,,,,,,,,,,,,,,
ELEC,LAZ Parking 136-20 38th Ave - Tesla Destination,136-20 38th Ave,,Flushing,NY,11354,Queens,,347-723-3375  877-798-3752,E,,Public,,,,,,,4,,,Tesla Destination,https://www.tesla.com/destination-charging,200-9,40.760965,-73.829807,10/6/22,150579,2023-01-18 15:15:20 UTC,P,,,3/31/19,,,,,TESLA,US,,,,Public,,public,,,,,,,,,,Free,,,,,,,,,,,,,,,,,
ELEC,Sylvan Parking 136-33 37th Ave - Tesla Destination,136-33 37th Ave,,Flushing,NY,11354,Queens,,718-762-2729  877-798-3752,E,,Public,,,,,,,3,,,Tesla Destination,https://www.tesla.com/destination-charging,200-9,40.761959,-73.829813,10/6/22,150586,2023-01-18 15:15:20 UTC,P,,,3/30/19,,,,,TESLA,US,,,,Public,,public,,,,,,,,,,Free,,,,,,,,,,,,,,,,,
ELEC,IMPark 92-77 Queens Blvd - Tesla Destination,92-77 Queens Blvd,,Rego Park,NY,11374,Queens,,212-937-8660  877-798-3752,E,,Public,,,,,,,4,,,Tesla Destination,https://www.tesla.com/destination-charging,200-8,40.732255,-73.866674,10/6/22,150587,2023-01-18 15:15:20 UTC,P,,,3/30/19,,,,,TESLA,US,,,,Public,,public,,,,,,,,,,Free,,,,,,,,,,,,,,,,,
ELEC,ProPark 110-45 Queens Blvd - Tesla Destination,110-45 Queens Blvd,,Forest Hills,NY,11375,Queens,,718-793-8096  877-798-3752,E,,Public,,,,,,,4,,,Tesla Destination,https://www.tesla.com/destination-charging,200-9,40.719885,-73.83857,10/6/22,150614,2023-01-18 15:15:20 UTC,P,,,1/18/19,,,,,TESLA,US,,,,Public,,public,,,,,,,,,,Free,,,,,,,,,,,,,,,,,
ELEC,Sylvan Gerard Garage - Tesla Destination,70-25 Yellowstone Blvd,,Forest Hills,NY,11375,Queens,,718-793-6773  877-798-3752,E,,Public,,,,,,,4,,,Tesla Destination,https://www.tesla.com/destination-charging,200-9,40.7218556,-73.8491057,10/6/22,150639,2023-01-18 15:15:20 UTC,P,,,11/30/18,,,,,TESLA,US,,,,Public,,public,,,,,,,,,,Free,,,,,,,,,,,,,,,,,
ELEC,GGMC Parking MODA - Tesla Destination,89-14 Parsons Blvd,,Jamaica,NY,11432,Queens,,718-523-1475  877-798-3752,E,,Public,,,,,,,7,,,Tesla Destination,https://www.tesla.com/destination-charging,200-9,40.705133,-73.801443,10/6/22,150686,2023-01-18 15:15:20 UTC,P,,,10/17/18,,,,,J1772 TESLA,US,,,,Public,,public,,,,,,,,,,Free,,,,,,,,,,,,,,,,,
ELEC,GREEN ACRES MALL,2034 Green Acres Mall,,Valley Stream,NY,11581,Queens,,833-632-2778,E,,Public,24 hours daily,,,,,,1,4,,Electrify America,https://www.electrifyamerica.com/,GPS,40.66212,-73.72324,4/20/23,152450,2023-04-20 00:41:19 UTC,,,,1/15/20,,,,,CHADEMO J1772 J1772COMBO,US,,,,Public,,public,,,,,,,,,,,,,,,,,,,,,,,,,,,
ELEC,Queens Crossing - Tesla Supercharger,136-20 38th Avenue,,Flushing,NY,11354,Queens,,877-798-3752,E,,Public,24 hours daily; for Tesla use only,,,,,,,4,,Tesla,https://www.tesla.com/supercharger,GPS,40.760856,-73.829765,10/3/22,153417,2022-12-01 17:40:26 UTC,P,,,1/31/20,,,,,TESLA,US,,,,Public,,public,,,,,,,,,,$0.28 per kWh; $0.26 per minute above 60 kW and $0.13 per minute at or below 60 kW,,,,,,,,,,,,,,,,,
ELEC,MASPETH FEDERAL MASPETH 1,56-18 69th St,,Maspeth,NY,11378,Queens,,888-758-4389,E,,Public,24 hours daily,,,,,,2,,,ChargePoint Network,http://www.chargepoint.com/,GPS,40.726232,-73.895705,4/20/23,162165,2023-04-20 00:12:54 UTC,,,,6/12/20,,,,,J1772,US,,,,Public,,public,,,,,,,,,,,,,,,,,,,,,,,,,,,
ELEC,TOWNOFHEMPSTEAD EAST MARINA 1N,1501 Lido Blvd,,Point Lookout,NY,11569,Queens,,888-758-4389,E,,Public,24 hours daily,,,,,,2,,,ChargePoint Network,http://www.chargepoint.com/,GPS,40.592463,-73.584309,4/20/23,162282,2023-04-20 00:10:51 UTC,,,,6/12/20,,,,,J1772,US,,,,Public,,public,,,,,,,,,,,,,,,,,,,,,,,,,,,
ELEC,PANYNJ LGA WEST 1,LGA West Garage LaGuardia Airport,,Flushing,NY,11371,Queens,,888-758-4389,E,,Public,24 hours daily,,,,,,1,,,ChargePoint Network,http://www.chargepoint.com/,GPS,40.773116,-73.874977,4/20/23,162285,2023-04-20 00:10:42 UTC,,,,6/12/20,,,,,J1772,US,,,,Public,,public,,,,,,,,,,,,,,,,,,,,,,,,,,,
ELEC,PANYNJ LGA WEST 3,LGA West Garage LaGuardia Airport,,East Elmhurst,NY,11371,Queens,,888-758-4389,E,,Public,24 hours daily,,,,,,1,,,ChargePoint Network,http://www.chargepoint.com/,GPS,40.773009,-73.875324,4/20/23,162287,2023-04-20 00:10:40 UTC,,,,6/12/20,,,,,J1772,US,,,,Public,,public,,,,,,,,,,,,,,,,,,,,,,,,,,,
ELEC,CITYOFGLEN COVE PULASKI ST GARG,9 Glen Street,,Glen Cove,NY,11542,Queens,,888-758-4389,E,,Public,24 hours daily,,,,,,2,,,ChargePoint Network,http://www.chargepoint.com/,GPS,40.864321,-73.631261,4/20/23,162350,2023-04-20 00:09:40 UTC,,,,6/12/20,,,,,J1772,US,,,,Public,,public,,,,,,,,,,,,,,,,,,,,,,,,,,,
ELEC,BMW FREEPORT STATION 02,291 W Sunrise Hwy,,Freeport,NY,11520,Queens,,888-758-4389,E,,Public,24 hours daily,,,,,,2,,,ChargePoint Network,http://www.chargepoint.com/,GPS,40.655617,-73.596005,4/20/23,162448,2023-04-20 00:02:54 UTC,,,,6/12/20,,,,,J1772,US,,,,Public,,public,,,,,,,,,,,,,,,,,,,,,,,,,,,
ELEC,BMW FREEPORT STATION 01,100 Cleveland Ave,,Freeport,NY,11520,Queens,,888-758-4389,E,,Public,24 hours daily,,,,,,2,,,ChargePoint Network,http://www.chargepoint.com/,GPS,40.654208,-73.569134,4/20/23,162449,2023-04-20 00:02:54 UTC,,,,6/12/20,,,,,J1772,US,,,,Public,,public,,,,,,,,,,,,,,,,,,,,,,,,,,,
ELEC,Old Westbury Golf and Country Club - Tesla Destination,270 Wheatley Road,,Old Westbury,NY,11568,Queens,,516-626-1810  877-798-3752,E,,Public,,,,,,,3,,,Tesla Destination,https://www.tesla.com/destination-charging,200-9,40.802151,-73.601366,10/6/22,168994,2023-01-18 15:15:20 UTC,P,,,12/16/15,,,,,J1772 TESLA,US,,,,Public,,public,,,,,,,,,,Free,,,,,,,,,,,,,,,,,
ELEC,ADELPHI UNIV STATION 02,1 South Ave,,Garden City,NY,11530,Queens,,888-758-4389,E,,Public,24 hours daily,,,,,,2,,,ChargePoint Network,http://www.chargepoint.com/,GPS,40.719585,-73.650042,4/20/23,171552,2023-04-20 00:19:29 UTC,,,,1/27/21,,,,,J1772,US,,,,Public,,public,,,,,,,,,,,,,,,,,,,,,,,,,,,
ELEC,ADELPHI UNIV STATION 04,1 South Ave,,Garden City,NY,11530,Queens,,888-758-4389,E,,Public,24 hours daily,,,,,,2,,,ChargePoint Network,http://www.chargepoint.com/,GPS,40.719626,-73.650022,4/20/23,171553,2023-04-20 00:19:26 UTC,,,,1/27/21,,,,,J1772,US,,,,Public,,public,,,,,,,,,,,,,,,,,,,,,,,,,,,
ELEC,ADELPHI UNIV STATION 03,1 South Ave,,Garden City,NY,11530,Queens,,888-758-4389,E,,Public,24 hours daily,,,,,,2,,,ChargePoint Network,http://www.chargepoint.com/,GPS,40.719561,-73.650096,4/20/23,171554,2023-04-20 00:19:26 UTC,,,,1/27/21,,,,,J1772,US,,,,Public,,public,,,,,,,,,,,,,,,,,,,,,,,,,,,
ELEC,ADELPHI UNIV STATION 05,1 South Ave,,Garden City,NY,11530,Queens,,888-758-4389,E,,Public,24 hours daily,,,,,,2,,,ChargePoint Network,http://www.chargepoint.com/,GPS,40.719629,-73.650059,4/20/23,171555,2023-04-20 00:18:46 UTC,,,,1/27/21,,,,,J1772,US,,,,Public,,public,,,,,,,,,,,,,,,,,,,,,,,,,,,
ELEC,ADELPHI UNIV STATION 06,1 South Ave,,Garden City,NY,11530,Queens,,888-758-4389,E,,Public,24 hours daily,,,,,,2,,,ChargePoint Network,http://www.chargepoint.com/,GPS,40.71962,-73.650117,4/20/23,171556,2023-04-20 00:18:46 UTC,,,,1/27/21,,,,,J1772,US,,,,Public,,public,,,,,,,,,,,,,,,,,,,,,,,,,,,
ELEC,GARDEN CHARGERS JOVIA #4,1000 Corporate Dr,,Westbury,NY,11590,Queens,,888-758-4389,E,,Public,24 hours daily,,,,,,2,,,ChargePoint Network,http://www.chargepoint.com/,GPS,40.740214,-73.60113,4/20/23,174504,2023-04-20 00:17:27 UTC,,,,1/27/21,,,,,J1772,US,,,,Public,,public,,,,,,,,,,,,,,,,,,,,,,,,,,,
ELEC,GARDEN CHARGERS JOVIA #3,1000 Corporate Dr,,Westbury,NY,11590,Queens,,888-758-4389,E,,Public,24 hours daily,,,,,,2,,,ChargePoint Network,http://www.chargepoint.com/,GPS,40.740154,-73.601131,4/20/23,174505,2023-04-20 00:17:26 UTC,,,,1/27/21,,,,,J1772,US,,,,Public,,public,,,,,,,,,,,,,,,,,,,,,,,,,,,
ELEC,GARDEN CHARGERS JOVIA #2,1000 Corporate Dr,,Westbury,NY,11590,Queens,,888-758-4389,E,,Public,24 hours daily,,,,,,2,,,ChargePoint Network,http://www.chargepoint.com/,GPS,40.740106,-73.601104,4/20/23,174506,2023-04-20 00:17:22 UTC,,,,1/27/21,,,,,J1772,US,,,,Public,,public,,,,,,,,,,,,,,,,,,,,,,,,,,,
ELEC,GARDEN CHARGERS JOVIA ASD 1,1000 Corporate Dr,,Westbury,NY,11590,Queens,,888-758-4389,E,,Public,24 hours daily,,,,,,2,,,ChargePoint Network,http://www.chargepoint.com/,GPS,40.740059,-73.601087,4/20/23,174507,2023-04-20 00:17:22 UTC,,,,1/27/21,,,,,J1772,US,,,,Public,,public,,,,,,,,,,,,,,,,,,,,,,,,,,,
ELEC,PANYNJ JFK Y GARAGE 1,JFK Access Rd JFK International Airport,,Queens,NY,11430,Queens,,888-758-4389,E,,Public,24 hours daily,,,,,,2,,,ChargePoint Network,http://www.chargepoint.com/,GPS,40.645659,-73.779481,4/20/23,174641,2023-04-20 00:17:18 UTC,,,,1/27/21,,,,,J1772,US,,,,Public,,public,,,,,,,,,,,,,,,,,,,,,,,,,,,
ELEC,PANYNJ JFK Y GARAGE 3,JFK Access Road JFK International Airport,,Queens,NY,11430,Queens,,888-758-4389,E,,Public,24 hours daily,,,,,,2,,,ChargePoint Network,http://www.chargepoint.com/,GPS,40.645758,-73.779314,4/20/23,174643,2023-04-20 00:17:11 UTC,,,,1/27/21,,,,,J1772,US,,,,Public,,public,,,,,,,,,,,,,,,,,,,,,,,,,,,
ELEC,PANYNJ LGA WEST 2,LGA West Garage LaGuardia Airport,,Flushing,NY,11371,Queens,,888-758-4389,E,,Public,24 hours daily,,,,,,1,,,ChargePoint Network,http://www.chargepoint.com/,GPS,40.773069,-73.875169,4/20/23,180139,2023-04-20 00:10:40 UTC,,,,1/27/21,,,,,J1772,US,,,,Public,,public,,,,,,,,,,,,,,,,,,,,,,,,,,,
ELEC,PANYNJ LGA WEST 5,LGA West Garage LaGuardia Airport,,Flushing,NY,11371,Queens,,888-758-4389,E,,Public,24 hours daily,,,,,,1,,,ChargePoint Network,http://www.chargepoint.com/,GPS,40.772972,-73.875608,4/20/23,180140,2023-04-20 00:10:40 UTC,,,,1/27/21,,,,,J1772,US,,,,Public,,public,,,,,,,,,,,,,,,,,,,,,,,,,,,
ELEC,PANYNJ LGA WEST 4,LGA West Garage LaGuardia Airport,,East Elmhurst,NY,11371,Queens,,888-758-4389,E,,Public,24 hours daily,,,,,,1,,,ChargePoint Network,http://www.chargepoint.com/,GPS,40.772977,-73.875474,4/20/23,180141,2023-04-20 00:10:40 UTC,,,,1/27/21,,,,,J1772,US,,,,Public,,public,,,,,,,,,,,,,,,,,,,,,,,,,,,
ELEC,PANYNJ LGA E GARAGE W1,East Garage E End Rd LaGuardia Airport,,New York,NY,11371,Queens,,888-758-4389,E,,Public,24 hours daily,,,,,,2,,,ChargePoint Network,http://www.chargepoint.com/,GPS,40.770752,-73.866327,4/20/23,180166,2023-04-20 00:03:58 UTC,,,,1/27/21,,,,,J1772,US,,,,Public,,public,,,,,,,,,,,,,,,,,,,,,,,,,,,
ELEC,NYC FLEET DPRWFMARNA_1_L3,109-5 Marina Rd,,Corona,NY,11368,Queens,,888-758-4389,E,,Public,24 hours daily,,,,,,,1,,ChargePoint Network,http://www.chargepoint.com/,GPS,40.760609,-73.857002,4/20/23,187658,2023-04-20 00:21:40 UTC,,,,4/16/21,,,,,CHADEMO J1772COMBO,US,,,,Public,,public,,,,,,,,,,,,,,,,,,,,,,,,,,,
ELEC,Gerard Garage,69-13 Austin St.,Unit#338 is under repair.||,Forest Hills,NY,11375,Queens,,888-998-2546,E,,Public,,,,,,,1,,,Blink Network,http://www.blinkcharging.com/,GPS,40.72205,-73.849351,4/19/23,189365,2023-04-19 00:00:16 UTC,,,,5/7/21,,,,,J1772,US,,,,Public,,public,,,,,,,,,,Free,,,,,,,,,,,,,,,,,
ELEC,Kew Garage,8002 Kew Gardens Rd,,Kew Gardens,NY,11415,Queens,,888-998-2546,E,,Public,,,,,,,1,,,Blink Network,http://www.blinkcharging.com/,GPS,40.713705,-73.831217,4/20/23,189547,2023-04-20 00:00:51 UTC,,,,5/11/21,,,,,J1772,US,,,,Public,,public,,,,,,,,,,Free,,,,,,,,,,,,,,,,,
ELEC,MASPETH FEDERAL STATION 1,101-09 Metropolitan Ave,,Forest Hills,NY,11375,Queens,,888-758-4389,E,,Public,24 hours daily,,,,,,2,,,ChargePoint Network,http://www.chargepoint.com/,GPS,40.710752,-73.851417,4/20/23,193535,2023-04-20 00:25:35 UTC,,,,8/6/21,,,,,J1772,US,,,,Public,,public,,,,,,,,,,,,,,,,,,,,,,,,,,,
ELEC,THE VANDERBILT BEECHWOOD HOMES,990 Corporate Dr,,Westbury,NY,11590,Queens,,888-758-4389,E,,Public,24 hours daily,,,,,,2,,,ChargePoint Network,http://www.chargepoint.com/,GPS,40.739353,-73.60072,4/20/23,193752,2023-04-20 00:27:02 UTC,,,,8/11/21,,,,,J1772,US,,,,Public,,public,,,,,,,,,,,,,,,,,,,,,,,,,,,
ELEC,Willis Row - Tesla Supercharger,373 Willis Avenue,,Roslyn Heights,NY,11577,Queens,,877-798-3752,E,,Public,24 hours daily; for Tesla use only,A D Debit M V,,,,,,8,,Tesla,https://www.tesla.com/supercharger,GPS,40.77943,-73.65012,10/3/22,194077,2022-12-01 17:40:26 UTC,P,,,7/27/21,,,,,TESLA,US,,,,Public,,public,,,SHOPPING_CENTER,,,,,,,$0.28 per kWh; $0.26 per minute above 60 kW and $0.13 per minute at or below 60 kW,,,,,,,,,,,,,,,,,
ELEC,EVolve NY JFK Airport,130th Place Between E & W Hangar Road,,Queens,NY,11430,Queens,,833-632-2778,E,,Public,24 hours daily,,,,,,,10,,Electrify America,https://www.electrifyamerica.com/,GPS,40.65608,-73.80809,4/20/23,194919,2023-04-20 00:41:32 UTC,,,,9/2/21,,,,,CHADEMO J1772COMBO,US,,,,Public,,public,,,,,,,,,,,,,,,,,,,,,,,,,,,
ELEC,JFK Airport - West Cell Phone Lot,130th Place Between E & W Hangar Rd,,Jamaica,NY,11430,Queens,,833-632-2778,E,,Public,24 hours daily,,,,,,,10,,Electrify America,https://www.electrifyamerica.com/,GPS,40.65609058,-73.80807874,9/10/21,194951,2022-02-10 19:42:29 UTC,SG,,,8/30/21,,,,,CHADEMO J1772COMBO,US,,,,Public,,public,,,AIRPORT,,,,,,,$0.35 per kWh; Parking fee,,,,,,,,,,FALSE,,,,,,,
ELEC,NYC FLEET DCASCSTHSE_1_L3,6626 Metropolitan Ave,,Middle Village,NY,11379,Queens,,888-758-4389,E,,Public,24 hours daily,,,,,,,1,,ChargePoint Network,http://www.chargepoint.com/,GPS,40.711327,-73.89229,4/20/23,196564,2023-04-20 00:22:01 UTC,,,,10/1/21,,,,,CHADEMO J1772COMBO,US,,,,Public,,public,,,,,,,,,,,,,,,,,,,,,,,,,,,
ELEC,NYC FLEET DCASCSTHSE_3_L3,6626 Metropolitan Ave,,Middle Village,NY,11379,Queens,,888-758-4389,E,,Public,24 hours daily,,,,,,,1,,ChargePoint Network,http://www.chargepoint.com/,GPS,40.711273,-73.89222,4/20/23,196565,2023-04-20 00:22:01 UTC,,,,10/1/21,,,,,CHADEMO J1772COMBO,US,,,,Public,,public,,,,,,,,,,,,,,,,,,,,,,,,,,,
ELEC,NYC FLEET DCASCSTHSE_2_L3,6626 Metropolitan Ave,,Middle Village,NY,11379,Queens,,888-758-4389,E,,Public,24 hours daily,,,,,,,1,,ChargePoint Network,http://www.chargepoint.com/,GPS,40.711266,-73.89218,4/20/23,196566,2023-04-20 00:23:00 UTC,,,,10/1/21,,,,,CHADEMO J1772COMBO,US,,,,Public,,public,,,,,,,,,,,,,,,,,,,,,,,,,,,
ELEC,134-10 225th St,137-10 225th St,,Jamaica,NY,11413,Queens,,888-356-8911,E,,Public,24 hours daily,,,,,,2,,,FLO,https://flo.ca/,GPS,40.677402,-73.745064,4/20/23,198164,2023-04-20 01:05:23 UTC,,,,10/23/21,,,,,J1772,US,,,,Public,,public,,,,,,,,,,,,,,,,,,,,,,,,,,,
ELEC,Roosevelt Field - Tesla Supercharger,630 Old Country Road,,Garden City,NY,11530,Queens,,877-798-3752,E,,Public,24 hours daily; for Tesla use only,A D Debit M V,,,,,,12,,Tesla,https://www.tesla.com/supercharger,GPS,40.741602,-73.613058,10/3/22,200956,2022-12-01 17:40:26 UTC,P,,,11/4/21,,,,,TESLA,US,,,,Public,,public,,,SHOPPING_MALL,,,,,,,$0.28 per kWh; $0.26 per minute above 60 kW and $0.13 per minute at or below 60 kW,,,,,,,,,,FALSE,,,,,,,
ELEC,Carle Place Commons - Tesla Supercharger,117 Old Country Road,,Carle Place,NY,11514,Queens,,877-798-3752,E,,Public,24 hours daily; for Tesla use only,A D Debit M V,,,,,,12,,Tesla,https://www.tesla.com/supercharger,GPS,40.744734,-73.616176,10/3/22,201668,2022-12-01 17:40:26 UTC,P,,,11/18/21,,,,,TESLA,US,,,,Public,,public,,,SHOPPING_CENTER,,,,,,,$0.28 per kWh; $0.26 per minute above 60 kW and $0.13 per minute at or below 60 kW,,,,,,,,,,FALSE,,,,,,,
ELEC,"Brixmor Parkway Plaza (Carle Place, NY)",207-225 Glen Cove Rd,,Carle Place,NY,11514,Queens,,833-632-2778,E,,Public,24 hours daily,,,,,,,4,,Electrify America,https://www.electrifyamerica.com/,GPS,40.74809,-73.61688,4/20/23,203023,2023-04-20 00:41:00 UTC,,,,12/24/21,,,,,CHADEMO J1772COMBO,US,,,,Public,,public,,,,,,,,,,,,,,,,,,,,,,,,,,,
ELEC,MPGARDENS STATION 1,36 Newbridge Rd,,East Meadow,NY,11554,Queens,,888-758-4389,E,,Public,24 hours daily,,,,,,2,,,ChargePoint Network,http://www.chargepoint.com/,GPS,40.705143,-73.546936,4/20/23,206835,2023-04-20 00:27:28 UTC,,,,2/22/22,,,,,J1772,US,,,,Public,,public,,,,,,,,,,,,,,,,,,,,,,,,,,,
ELEC,"Site Centers The Hub (Hempstead, NY)",132-178 Fulton Ave,,Hempstead,NY,11550,Queens,,833-632-2778,E,,Public,24 hours daily,,,,,,,4,,Electrify America,https://www.electrifyamerica.com/,GPS,40.70601,-73.63095,4/20/23,211861,2023-04-20 00:41:22 UTC,,,,3/17/22,,,,,CHADEMO J1772COMBO,US,,,,Public,,public,,,,,,,,,,,,,,,,,,,,,,,,,,,
ELEC,AUTOWORLD KIA STATION 1,2520 Hempstead Turnpike,,East Meadow,NY,11554,Queens,,888-758-4389,E,,Public,24 hours daily,,,,,,2,,,ChargePoint Network,http://www.chargepoint.com/,GPS,40.723663,-73.542769,4/20/23,212205,2023-04-20 00:27:40 UTC,,,,3/23/22,,,,,J1772,US,,,,Public,,public,,,,,,,,,,,,,,,,,,,,,,,,,,,
ELEC,Stop & Shop #566 - Arverne By-the-sea,70-20 Rockaway Beach Boulevard,,Queens,NY,11692,Queens,,888-264-2208,E,,Public,Mon 5:00am - 10:59pm; Tue 5:00am - 10:59pm; Wed 5:00am - 10:59pm; Thu 5:00am - 10:59pm; Fri 5:00am - 10:59pm; Sat 5:00am - 10:59pm; Sun 5:00am - 10:59pm,,,,,,2,,L2,Volta,https://voltacharging.com/,GPS,40.5898135,-73.7999495,4/20/23,212485,2023-04-20 01:27:27 UTC,,,,3/25/22,,,,,J1772,US,,,,Public,,public,,,,,,,,,,,,,,,,,,,,FALSE,,,,,,,
ELEC,NYS PARKS LI STATION 1,880 Lake Dr,,Lakeview,NY,11552,Queens,,888-758-4389,E,,Public,24 hours daily,,,,,,2,,,ChargePoint Network,http://www.chargepoint.com/,GPS,40.68306,-73.643105,4/20/23,213461,2023-04-20 00:27:39 UTC,,,,4/6/22,,,,,J1772,US,,,,Public,,public,,,,,,,,,,,,,,,,,,,,,,,,,,,
ELEC,35-58 72nd St,35-58 72nd St,,Jackson Heights,NY,11372,Queens,,888-356-8911,E,,Public,24 hours daily,,,,,,2,,,FLO,https://flo.ca/,GPS,40.74894,-73.893721,4/20/23,217408,2023-04-20 01:05:23 UTC,,,,5/12/22,,,,,J1772,US,,,,Public,,public,,,,,,,,,,,,,,,,,,,,,,,,,,,
ELEC,North Coast Subaru,105 Glen Street,Front right corner of the building||,Glen Cove,NY,11542,Queens,,888-998-2546,E,,Public,,,,,,,1,,,Blink Network,http://www.blinkcharging.com/,GPS,40.864143,-73.626372,4/19/23,218222,2023-04-19 23:59:28 UTC,,,,5/17/22,,,,,J1772,US,,,,Public,,public,,,,,,,,,,Free,,,,,,,,,,,,,,,,,
ELEC,Kohl's Center,3620 Long Beach Road,,Oceanside,NY,11572,Queens,,888-264-2208,E,,Public,Mon 7:00am - 9:00pm; Tue 7:00am - 9:00pm; Wed 7:00am - 9:00pm; Thu 7:00am - 9:00pm; Fri 7:00am - 9:00pm; Sat 7:00am - 9:00pm; Sun 7:00am - 9:00pm,,,,,,1,,,Volta,https://voltacharging.com/,GPS,40.62245487,-73.64203656,4/20/23,222353,2023-04-20 01:26:44 UTC,,,,6/25/22,,,,,J1772,US,,,,Public,,public,,,,,,,,,,,,,,,,,,,,FALSE,,,,,,,
ELEC,"Chalet Apartments 300 Edwards Street Roslyn, NY",300 Edwards Street,,Roslyn,NY,11577,Queens,,888-356-8911,E,,Public,24 hours daily,,,,,,2,,,FLO,https://flo.ca/,GPS,40.794166,-73.647669,4/20/23,222433,2023-04-20 01:05:23 UTC,,,,7/1/22,,,,,J1772,US,,,,Public,,public,,,,,,,,,,,,,,,,,,,,,,,,,,,
ELEC,Stop & Shop 465 Atlantic Ave,465 Atlantic Avenue,,Oceanside,NY,11572,Queens,,888-264-2208,E,,Public,Mon 5:00am - 10:59pm; Tue 5:00am - 10:59pm; Wed 5:00am - 10:59pm; Thu 5:00am - 10:59pm; Fri 5:00am - 10:59pm; Sat 5:00am - 10:59pm; Sun 5:00am - 10:59pm,,,,,,2,,,Volta,https://voltacharging.com/,GPS,40.6398015,-73.6524965,4/20/23,222818,2023-04-20 01:26:13 UTC,,,,7/1/22,,,,,J1772,US,,,,Public,,public,,,,,,,,,,,,,,,,,,,,FALSE,,,,,,,
ELEC,Country Glen Center,95 Old Country Road,,Carle Place,NY,11514,Queens,,888-264-2208,E,,Public,Mon 5:00am - 10:59pm; Tue 5:00am - 10:59pm; Wed 5:00am - 10:59pm; Thu 5:00am - 10:59pm; Fri 5:00am - 10:59pm; Sat 5:00am - 10:59pm; Sun 5:00am - 10:59pm,,,,,,2,,,Volta,https://voltacharging.com/,GPS,40.7443395,-73.620096,4/20/23,222819,2023-04-20 01:27:08 UTC,,,,7/1/22,,,,,J1772,US,,,,Public,,public,,,,,,,,,,,,,,,,,,,,FALSE,,,,,,,
ELEC,Kissena Garage,4370 Kissena Boulevard,,Flushing,NY,11355,Queens,,888-998-2546,E,,Public,,,,,,,1,,,Blink Network,http://www.blinkcharging.com/,GPS,40.753624,-73.823573,4/19/23,223486,2023-04-19 23:58:42 UTC,,,,7/14/22,,,,,J1772,US,,,,Public,,public,,,,,,,,,,Free,,,,,,,,,,,,,,,,,
ELEC,QT STATION 1,62-10 Northern Blvd,,Woodside,NY,11377,Queens,,888-758-4389,E,,Public,24 hours daily,,,,,,2,,,ChargePoint Network,http://www.chargepoint.com/,GPS,40.753602,-73.899789,4/20/23,224507,2023-04-20 00:31:47 UTC,,,,7/28/22,,,,,J1772,US,,,,Public,,public,,,,,,,,,,,,,,,,,,,,,,,,,,,
ELEC,QT STATION 3,62-10 Northern Blvd,,Woodside,NY,11377,Queens,,888-758-4389,E,,Public,24 hours daily,,,,,,2,,,ChargePoint Network,http://www.chargepoint.com/,GPS,40.753601,-73.899806,4/20/23,224508,2023-04-20 00:31:47 UTC,,,,7/28/22,,,,,J1772,US,,,,Public,,public,,,,,,,,,,,,,,,,,,,,,,,,,,,
ELEC,QT STATION 2,62-10 Northern Blvd,,Woodside,NY,11377,Queens,,888-758-4389,E,,Public,24 hours daily,,,,,,2,,,ChargePoint Network,http://www.chargepoint.com/,GPS,40.753602,-73.899825,4/20/23,224509,2023-04-20 00:31:47 UTC,,,,7/28/22,,,,,J1772,US,,,,Public,,public,,,,,,,,,,,,,,,,,,,,,,,,,,,
ELEC,ARCHER GREEN MI STATION 1,92-23 168th St,,JAMAICA,NY,11433,Queens,,888-758-4389,E,,Public,24 hours daily,,,,,,1,,,ChargePoint Network,http://www.chargepoint.com/,GPS,40.70522,-73.79147,4/20/23,225478,2023-04-20 00:26:25 UTC,,,,8/13/22,,,,,J1772,US,,,,Public,,public,,,,,,,,,,,,,,,,,,,,,,,,,,,
ELEC,ARCHER GREEN MI STATION 4,92-23 168th St,,Jamaica,NY,11433,Queens,,888-758-4389,E,,Public,24 hours daily,,,,,,1,,,ChargePoint Network,http://www.chargepoint.com/,GPS,40.70525,-73.791534,4/20/23,225479,2023-04-20 00:26:25 UTC,,,,8/13/22,,,,,J1772,US,,,,Public,,public,,,,,,,,,,,,,,,,,,,,,,,,,,,
ELEC,ARCHER GREEN MI STATION 2,92-23 168th St,,Jamaica,NY,11433,Queens,,888-758-4389,E,,Public,24 hours daily,,,,,,1,,,ChargePoint Network,http://www.chargepoint.com/,GPS,40.70524,-73.791466,4/20/23,225480,2023-04-20 00:26:29 UTC,,,,8/13/22,,,,,J1772,US,,,,Public,,public,,,,,,,,,,,,,,,,,,,,,,,,,,,
ELEC,ARCHER GREEN MI STATION 3,92-23 168th St,,JAMAICA,NY,11433,Queens,,888-758-4389,E,,Public,24 hours daily,,,,,,1,,,ChargePoint Network,http://www.chargepoint.com/,GPS,40.705254,-73.7915,4/20/23,225481,2023-04-20 00:26:29 UTC,,,,8/13/22,,,,,J1772,US,,,,Public,,public,,,,,,,,,,,,,,,,,,,,,,,,,,,
ELEC,ARCHER GREEN MI STATION 5,92-23 168th Pl,,Jamaica,NY,11433,Queens,,888-758-4389,E,,Public,24 hours daily,,,,,,1,,,ChargePoint Network,http://www.chargepoint.com/,GPS,40.70568,-73.791504,4/20/23,225482,2023-04-20 00:26:30 UTC,,,,8/13/22,,,,,J1772,US,,,,Public,,public,,,,,,,,,,,,,,,,,,,,,,,,,,,
ELEC,81-09 41st Ave,81-09 41st Ave,,Queens,NY,11373,Queens,,888-356-8911,E,,Public,24 hours daily,,,,,,2,,,FLO,https://flo.ca/,GPS,40.745853,-73.884134,4/20/23,225691,2023-04-20 01:05:23 UTC,,,,8/18/22,,,,,J1772,US,,,,Public,,public,,,,,,,,,,,,,,,,,,,,,,,,,,,
ELEC,RXR REALTY STATION 1,625 RXR Plaza,,Uniondale,NY,11556,Queens,,888-758-4389,E,,Public,24 hours daily,,,,,,2,,,ChargePoint Network,http://www.chargepoint.com/,GPS,40.720162,-73.58196,4/20/23,229414,2023-04-20 00:29:59 UTC,,,,9/28/22,,,,,J1772,US,,,,Public,,public,,,,,,,,,,,,,,,,,,,,,,,,,,,
ELEC,Forest Hills Tower,11835 Queens Blvd,,Forest Hills,NY,11375,Queens,,866-816-7584,E,,Public,,,,,,,6,,,EV Connect,http://evconnect.com/,GPS,40.715319,-73.830563,4/20/23,230790,2023-04-20 01:24:29 UTC,,,,9/30/22,,,,,J1772,US,,,,Public,,public,,,,,,,,,,,,,,,,,,,,,,,,,,,
ELEC,Flushing Plaza,41-61 Kissena Blvd,,Flushing,NY,11355,Queens,,866-816-7584,E,,Public,,,,,,,6,,,EV Connect,http://evconnect.com/,GPS,40.757772,-73.826935,4/20/23,230791,2023-04-20 01:24:29 UTC,,,,9/30/22,,,,,J1772,US,,,,Public,,public,,,,,,,,,,,,,,,,,,,,,,,,,,,
ELEC,Keats Properties LLC (Insurance Agency),485 Jericho Turnpike,,Mineola,NY,11501,Queens,,866-816-7584,E,,Public,,,,,,,2,,,EV Connect,http://evconnect.com/,GPS,40.744489,-73.654673,4/20/23,230819,2023-04-20 01:24:36 UTC,,,,9/30/22,,,,,J1772,US,,,,Public,,public,,,,,,,,,,,,,,,,,,,,,,,,,,,
ELEC,86-86 Palo Alto St,86-86 Palo Alto St,,Hollis,NY,11423,Queens,,866-816-7584,E,,Public,,,,,,,2,,,EV Connect,http://evconnect.com/,GPS,40.718731,-73.773113,4/20/23,230831,2023-04-20 01:24:39 UTC,,,,9/30/22,,,,,J1772,US,,,,Public,,public,,,,,,,,,,,,,,,,,,,,,,,,,,,
ELEC,LaGuardia Express LLC - Hampton Inn,102-40 Ditmars Blvd,,East Elmhurst,NY,11369,Queens,,866-816-7584,E,,Public,,,,,,,2,,,EV Connect,http://evconnect.com/,GPS,40.767963,-73.86778,4/20/23,230867,2023-04-20 01:24:50 UTC,,,,9/30/22,,,,,J1772,US,,,,Public,,public,,,,,,,,,,,,,,,,,,,,,,,,,,,
ELEC,"Tree of Life, NY","90-11 160th Street, Suite 100",,Jamaica,NY,11432,Queens,,866-816-7584,E,,Public,,,,,,,5,,,EV Connect,http://evconnect.com/,GPS,40.704894,-73.7997,4/20/23,230985,2023-04-20 01:25:01 UTC,,,,9/30/22,,,,,J1772,US,,,,Public,,public,,,,,,,,,,,,,,,,,,,,,,,,,,,
ELEC,LGA Air Park Long Term Parking,99-11 Ditmars Blvd,,East Elmhurst,NY,11369,Queens,,844-623-1001,E,,Public,24 Hours Daily,A D Debit M V,,,,,20,,,LIVINGSTON,https://www.solution.energy,GPS,40.77044228,-73.87062657,11/10/22,233053,2023-02-14 15:54:11 UTC,P,,,10/4/22,,,,,J1772,US,,,,Public,,public,,,PARKING_LOT,,,,,,,,,,,,,,,,,FALSE,,,,,,,
ELEC,LGA Airpark,99-111 Ditmars Blvd,,East Elmhurst,NY,11369,Queens,,844-623-1001,E,,Public - Credit card at all times,24 hours daily,A CREDIT D M V,,,,,20,,,LIVINGSTON,https://www.solution.energy,GPS,40.77049,-73.87014,11/10/22,233084,2023-02-14 15:54:11 UTC,P,,,8/23/22,,,,,J1772,US,,,,Public - Carte de crédit en tout temps,,public,CREDIT_CARD_ALWAYS,,AIRPORT,,,,,,,,,,,,,,,,,FALSE,,,,,,,
ELEC,The Rockaway Hotel,108-10 Rockaway Beach Dr,,Rockaway Park,NY,11694,Queens,,855-223-5351,E,,Public,24 hours daily,A D M V,,,,,2,,,FLASH,https://www.flashparking.com/products/diversify-parking-revenue/ev-charging-as-a-revenue-stream/,GPS,40.58165964,-73.82976088,4/20/23,235400,2023-04-20 01:28:23 UTC,,,,7/1/22,,,,,J1772,US,,,,Public,,public,,,PUBLIC,,,,,,,,,,,,,,,,,FALSE,,,,,,,
ELEC,NMERRICKLIBRARY NMERRICKLIBRARY,1691 Meadowbrook Rd,,North Merrick,NY,11566,Queens,,888-758-4389,E,,Public,Mon 8:45am - 9:00pm; Tue 8:45am - 9:00pm; Wed 8:45am - 9:00pm; Thu 8:45am - 9:00pm; Fri 8:45am - 6:00pm; Sat 9:00am - 5:00pm; Sun 12:00pm - 5:00pm,,,,,,2,,,ChargePoint Network,http://www.chargepoint.com/,GPS,40.676416,-73.56814,4/20/23,236731,2023-04-20 00:33:01 UTC,,,,11/30/22,,,,,J1772,US,,,,Public,,public,,,,,,,,,,,,,,,,,,,,,,,,,,,
ELEC,GARDENCITYMAZDA CUSTOMERSTATION,227 N Franklin St,,Hempstead,NY,11550,Queens,,888-758-4389,E,,Public,24 hours daily,,,,,,2,,,ChargePoint Network,http://www.chargepoint.com/,GPS,40.713571,-73.630129,4/20/23,252748,2023-04-20 00:32:42 UTC,,,,1/31/23,,,,,J1772,US,,,,Public,,public,,,,,,,,,,,,,,,,,,,,,,,,,,,
ELEC,CARVANA CHP NY1001 B,1 North Ave,,Garden City,NY,11530,Queens,,888-758-4389,E,,Public,24 hours daily,,,,,,2,,,ChargePoint Network,http://www.chargepoint.com/,GPS,40.741559,-73.609142,4/20/23,253925,2023-04-20 00:32:43 UTC,,,,2/13/23,,,,,J1772,US,,,,Public,,public,,,,,,,,,,,,,,,,,,,,,,,,,,,
ELEC,CARVANA CHP NY1001 A,1 North Ave,,Garden City,NY,11530,Queens,,888-758-4389,E,,Public,24 hours daily,,,,,,2,,,ChargePoint Network,http://www.chargepoint.com/,GPS,40.741542,-73.609201,4/20/23,253926,2023-04-20 00:32:43 UTC,,,,2/13/23,,,,,J1772,US,,,,Public,,public,,,,,,,,,,,,,,,,,,,,,,,,,,,
ELEC,iPark - Paradise Garage,62-60 99th Street,,Rego Park,NY,11374,Queens,,888-998-2546,E,,Public,,,,,,,2,,,Blink Network,http://www.blinkcharging.com/,GPS,40.733347,-73.858012,4/19/23,255093,2023-04-19 23:59:33 UTC,,,,12/14/22,,,,,J1772,US,,,,Public,,public,,,,,,,,,,,,,,,,,,,,,,,,,,,
ELEC,Sylvan Parking - Pinnacle Garage,112-01 Queens Boulevard,,Forest Hills,NY,11375,Queens,,888-998-2546,E,,Public,,,,,,,1,,,Blink Network,http://www.blinkcharging.com/,GPS,40.718455,-73.83651,4/19/23,255150,2023-04-19 23:58:31 UTC,,,,2/10/23,,,,,J1772,US,,,,Public,,public,,,,,,,,,,,,,,,,,,,,,,,,,,,
ELEC,110 MAPLE AVE STATION 1(4021),110 Maple Ave,,Rockville Centre,NY,11570,Queens,,888-758-4389,E,,Public,24 hours daily,,,,,,2,,,ChargePoint Network,http://www.chargepoint.com/,GPS,40.658528,-73.639526,4/20/23,256160,2023-04-20 00:30:18 UTC,,,,3/10/23,,,,,J1772,US,,,,Public,,public,,,,,,,,,,,,,,,,,,,,,,,,,,,
ELEC,Jerome 190th Street Municipal Parking,2478 Jerome Avenue,,Bronx,NY,10468,Bronx,,866-816-7584,E,,Public,,,,,,,5,,,EV Connect,http://evconnect.com/,GPS,40.86334,-73.900066,4/20/23,94830,2023-04-20 01:24:32 UTC,,,,1/8/15,,,,,J1772,US,,,,Public,,public,,,,,,,,,,,,,,,,,,,,,,,,,,,
ELEC,Century Parking Corp - Tesla Destination,2600 Netherland Ave,,Bronx,NY,10463,Bronx,,718-543-6002  877-798-3752,E,,Public,,,,,,,4,,,Tesla Destination,https://www.tesla.com/destination-charging,200-9,40.878532,-73.916201,10/6/22,114888,2023-01-18 15:15:20 UTC,P,,,7/17/18,,,,,TESLA,US,,,,Public,,public,,,PAY_GARAGE,,,,,,,Free,,,,,,,,,,,,,,,,,
ELEC,Mall at Bay Plaza - Tesla Supercharger,260 Baychester Avenue,,Bronx,NY,10475,Bronx,,877-798-3752,E,,Public,24 hours daily; for Tesla use only,,,,,,,12,,Tesla,https://www.tesla.com/supercharger,200-9,40.863231,-73.828839,10/3/22,149299,2022-12-01 17:40:26 UTC,P,,,9/30/19,,,,,TESLA,US,,,,Public,,public,,,,,,,,,,$0.28 per kWh; $0.26 per minute above 60 kW and $0.13 per minute at or below 60 kW,,,,,,,,,,,,,,,,,
ELEC,3050 Corlear Ave - Nagle Parking Inc. - Tesla Destination,3050 Corlear Ave,,Bronx,NY,10463,Bronx,,718-708-5077  877-798-3752,E,,Public,,,,,,,4,,,Tesla Destination,https://www.tesla.com/destination-charging,200-9,40.880142,-73.907385,10/6/22,150624,2023-01-18 15:15:20 UTC,P,,,8/28/19,,,,,TESLA,US,,,,Public,,public,,,,,,,,,,Free,,,,,,,,,,,,,,,,,
ELEC,WCS NS1 SOUTHERN,2300 Southern Blvd,,Bronx,NY,10460,Bronx,,888-758-4389,E,,Public,24 hours daily,,,,,,2,,,ChargePoint Network,http://www.chargepoint.com/,GPS,40.850625,-73.881132,4/20/23,162156,2023-04-20 00:13:00 UTC,,,,6/12/20,,,,,J1772,US,,,,Public,,public,,,,,,,,,,,,,,,,,,,,,,,,,,,
ELEC,Gateway Center at Bronx Terminal Market,610 Exterior St,Level 1 across from Home Depot lot near ||the Parking Customer Service Window||,Bronx,NY,10451,Bronx,,888-998-2546,E,,Public,,,,,,,2,,,Blink Network,http://www.blinkcharging.com/,GPS,40.822142,-73.931128,4/19/23,164227,2023-04-19 23:58:42 UTC,,,,7/15/20,,,,,J1772,US,,,,Public,,public,,,,,,,,,,Free,,,,,,,,,,,,,,,,,
ELEC,"Trump Golf Links, Ferry Point - Tesla Destination",500 Hutchinson River Parkway,,Bronx,NY,10465,Bronx,,  877-798-3752,E,,Public,,,,,,,8,,,Tesla Destination,https://www.tesla.com/destination-charging,200-8,40.8124589,-73.83447,10/6/22,169223,2023-01-18 15:15:20 UTC,P,,,8/20/18,,,,,TESLA,US,,,,Public,,public,,,,,,,,,,Free,,,,,,,,,,,,,,,,,
ELEC,SKYVIEW APARTME SKYVIEW ST2,5800 Arlington Ave,,Riverdale,NY,10471,Bronx,,888-758-4389,E,,Public,24 hours daily,,,,,,2,,,ChargePoint Network,http://www.chargepoint.com/,GPS,40.908654,-73.905897,4/20/23,171342,2023-04-20 00:24:31 UTC,,,,1/16/21,,,,,J1772,US,,,,Public,,public,,,,,,,,,,,,,,,,,,,,,,,,,,,
ELEC,SKYVIEW APARTME SKYVIEW ST1,5800 Arlington Ave,,Riverdale,NY,10471,Bronx,,888-758-4389,E,,Public,24 hours daily,,,,,,2,,,ChargePoint Network,http://www.chargepoint.com/,GPS,40.90872,-73.905883,4/20/23,171476,2023-04-20 00:24:31 UTC,,,,1/27/21,,,,,J1772,US,,,,Public,,public,,,,,,,,,,,,,,,,,,,,,,,,,,,
ELEC,WCS NS1 ASIA,Boston Rd,,Bronx,NY,10460,Bronx,,888-758-4389,E,,Public,24 hours daily,,,,,,2,,,ChargePoint Network,http://www.chargepoint.com/,GPS,40.846612,-73.876323,4/20/23,173506,2023-04-20 00:13:09 UTC,,,,1/27/21,,,,,J1772,US,,,,Public,,public,,,,,,,,,,,,,,,,,,,,,,,,,,,
ELEC,5935 Broadway,5935 Broadway,,Bronx,NY,10463,Bronx,,888-356-8911,E,,Public,24 hours daily,,,,,,4,,,FLO,https://flo.ca/,GPS,40.888461,-73.899119,4/20/23,191505,2023-04-20 01:05:23 UTC,,,,6/25/21,,,,,J1772,US,,,,Public,,public,,,,,,,,,,,,,,,,,,,,,,,,,,,
ELEC,3474 Putnam Place,3474 Putnam Place,,Bronx,NY,10467,Bronx,,888-356-8911,E,,Public,24 hours daily,,,,,,2,,,FLO,https://flo.ca/,GPS,40.879413,-73.875485,4/20/23,191506,2023-04-20 01:05:23 UTC,,,,6/25/21,,,,,J1772,US,,,,Public,,public,,,,,,,,,,,,,,,,,,,,,,,,,,,
ELEC,2 Bedford Park Blvd W,2 Bedford Park Blvd W,,Bronx,NY,10468,Bronx,,888-356-8911,E,,Public,24 hours daily,,,,,,4,,,FLO,https://flo.ca/,GPS,40.87542146,-73.89394074,4/20/23,200599,2023-04-20 01:05:23 UTC,,,,11/5/21,,,,,J1772,US,,,,Public,,public,,,,,,,,,,,,,,,,,,,,,,,,,,,
ELEC,3500 Dekalb Ave,3500 Dekalb Ave,,Bronx,NY,10467,Bronx,,888-356-8911,E,,Public,24 hours daily,,,,,,2,,,FLO,https://flo.ca/,GPS,40.882337,-73.880265,4/20/23,201636,2023-04-20 01:05:23 UTC,,,,11/25/21,,,,,J1772,US,,,,Public,,public,,,,,,,,,,,,,,,,,,,,,,,,,,,
ELEC,Baychester Retail III LLC,500 Baychester Ave,,Bronx,NY,10475,Bronx,,866-816-7584,E,,Public,,,,,,,3,,,EV Connect,http://evconnect.com/,GPS,40.869205,-73.831633,4/20/23,205822,2023-04-20 01:24:36 UTC,,,,2/4/22,,,,,J1772,US,,,,Public,,public,,,,,,,,,,,,,,,,,,,,,,,,,,,
ELEC,Northeast Bronx YMCA,1250 E 229th St,,Bronx,NY,10466,Bronx,,347-389-6140,E,,Public - Credit card at all times,24 hours daily,A D Debit M V,,,,,4,,,Non-Networked,,GPS,40.88278584,-73.8419856,2/10/22,205826,2022-02-10 19:42:29 UTC,P,,,2/4/22,,,,,J1772,US,,,,Public - Carte de crédit en tout temps,,public,CREDIT_CARD_ALWAYS,,REC_SPORTS_FACILITY,,,,,,,,,,,,,,,,,FALSE,,,,,,,
ELEC,Riverdale Fast Parking,5604 Broadway,,Bronx,NY,10463,Bronx,,833-692-6787,E,,Public - Credit card at all times,Contact station for hours of availability.,A ANDROID_PAY APPLE_PAY CREDIT D M,,,,,8,,,AMPUP,https://ampup.io/,200-9,40.879501,-73.903603,10/11/22,230188,2023-02-14 15:54:11 UTC,P,,,9/15/22,,,,,J1772,US,,,,Public - Carte de crédit en tout temps,,public,CREDIT_CARD_ALWAYS,,PARKING_LOT,,,,,,,,,,,,,,,,,FALSE,,,,,,,
ELEC,Parkash 4769 LLC - 4769 White Plains,4769 White Plains Road,,Bronx,NY,10470,Bronx,,888-998-2546,E,,Public,,,,,,,7,,,Blink Network,http://www.blinkcharging.com/,GPS,40.905461,-73.849791,4/19/23,241222,2023-04-19 23:59:30 UTC,,,,1/6/23,,,,,J1772,US,,,,Public,,public,,,,,,,,,,Free,,,,,,,,,,,,,,,,,
ELEC,Popeyes,3401 Mickle Ave,,Bronx,NY,10469,Bronx,,888-356-8911,E,,Public,24 hours daily,,,,,,6,,,FLO,https://flo.ca/,GPS,40.876952,-73.845534,4/20/23,250759,2023-04-20 01:05:23 UTC,,,,1/14/23,,,,,J1772,US,,,,Public,,public,,,,,,,,,,,,,,,,,,,,,,,,,,,
ELEC,NYC FLEET DPR_CWSSHOPS#3,860 E 138th St,,The Bronx,NY,10454,Bronx,,888-758-4389,E,,Public,24 hours daily,,,,,,2,,,ChargePoint Network,http://www.chargepoint.com/,GPS,40.80291,-73.90921,4/20/23,257581,2023-04-20 00:35:39 UTC,,,,3/31/23,,,,,J1772,US,,,,Public,,public,,,,,,,,,,,,,,,,,,,,,,,,,,,
ELEC,Dana Ford Lincoln,266 W Service Rd,,Staten Island,NY,10314,Staten Island,,718-983-8700,E,,Public - Call ahead,Dealership business hours; for customer use only,,,,,,1,,,Non-Networked,,GPS,40.587162,-74.194747,6/7/21,64140,2023-03-01 17:44:18 UTC,P,,,11/1/14,,,,,J1772,US,,,,Public - Appeler à l'avance,,public,CALL,,CAR_DEALER,,,,,,,Free,,,,,,,,,,TRUE,,,,,,,
ELEC,St. George Courthouse,54 Central Ave,,Staten Island,NY,10301,Staten Island,,866-816-7584,E,,Public,,,,,,,3,,,EV Connect,http://evconnect.com/,GPS,40.639469,-74.076912,4/20/23,65296,2023-04-20 01:24:34 UTC,,,,8/8/16,,,,,J1772,US,,,,Public,,public,,,,,,,,,,,,,,,,,,,,,,,,,,,
ELEC,Nissan of Staten Island,1976 Hylan Blvd,,Staten Island,NY,10306,Staten Island,,718-447-3800,E,,Public,Dealership business hours,,,,,,1,,,Non-Networked,,200-9,40.581432,-74.097694,6/9/20,99500,2021-03-11 23:22:17 UTC,P,,,6/28/18,,,,,J1772,US,,,,Public,,public,,,CAR_DEALER,,,,,,,Free,,,,,,,,,,FALSE,,,,,,,
ELEC,Angelina's Ristorante - Tesla Destination,399 Ellis St,,Staten Island,NY,10307,Staten Island,,718-227-2900  877-798-3752,E,,Public,,,,,,,3,,,Tesla Destination,https://www.tesla.com/destination-charging,200-9,40.513465,-74.251418,10/6/22,115240,2023-01-18 15:15:20 UTC,P,,,1/11/16,,,,,TESLA,US,,,,Public,,public,,,RESTAURANT,,,,,,,Free,,,,,,,,,,,,,,,,,
ELEC,Bruno's Bakery and Restaurant Forest Ave - Tesla Destination,676 Forest Ave,,Staten Island,NY,10310,Staten Island,,718-448-0993  877-798-3752,E,,Public,,,,,,,2,,,Tesla Destination,https://www.tesla.com/destination-charging,200-9,40.629216,-74.111537,10/6/22,150541,2023-01-18 15:15:20 UTC,P,,,8/28/19,,,,,TESLA,US,,,,Public,,public,,,,,,,,,,Free,,,,,,,,,,,,,,,,,
ELEC,Bruno's Bakery and Restaurant Hylan Blvd - Tesla Destination,1650 Hylan Blvd,,Staten Island,NY,10305,Staten Island,,718-987-5859  877-798-3752,E,,Public,,,,,,,2,,,Tesla Destination,https://www.tesla.com/destination-charging,200-9,40.588091,-74.089936,10/6/22,150697,2023-01-18 15:15:20 UTC,P,,,8/28/19,,,,,TESLA,US,,,,Public,,public,,,,,,,,,,Free,,,,,,,,,,,,,,,,,
ELEC,Outerbridge Commons - Tesla Supercharger,2925 Veterans Road West,,New York City,NY,10309,Staten Island,,877-798-3752,E,,Public,24 hours daily; for Tesla use only,,,,,,,12,,Tesla,https://www.tesla.com/supercharger,GPS,40.527543,-74.23131,10/3/22,152158,2022-12-01 17:40:26 UTC,P,,,1/20/20,,,,,TESLA,US,,,,Public,,public,,,SHOPPING_CENTER,,,,,,,$0.28 per kWh; $0.26 per minute above 60 kW and $0.13 per minute at or below 60 kW,,,,,,,,,,,,,,,,,
ELEC,Staten Island University Hospital (South Side 375 Sequine Ave),375 Seguine Ave,,Staten Island,NY,10309,Staten Island,,866-816-7584,E,,Public,,,,,,,4,,,EV Connect,http://evconnect.com/,GPS,40.516758,-74.196379,4/20/23,166366,2023-04-20 01:24:41 UTC,,,,5/8/20,,,,,J1772,US,,,,Public,,public,,,,,,,,,,,,,,,,,,,,,,,,,,,
ELEC,Staten Island University Hospital (North Side 475 Seaview Ave.),475 Seaview Ave,,Staten Island,NY,10305,Staten Island,,866-816-7584,E,,Public,,,,,,,8,,,EV Connect,http://evconnect.com/,GPS,40.584709,-74.086124,4/20/23,166368,2023-04-20 01:24:41 UTC,,,,5/7/20,,,,,J1772,US,,,,Public,,public,,,,,,,,,,,,,,,,,,,,,,,,,,,
ELEC,Staten Island Mall Dave & Buster's,2655 Richmond Ave.,,Staten Island,NY,10314,Staten Island,,888-264-2208,E,,Public,Mon 5:00am - 10:59pm; Tue 5:00am - 10:59pm; Wed 5:00am - 10:59pm; Thu 5:00am - 10:59pm; Fri 5:00am - 10:59pm; Sat 5:00am - 10:59pm; Sun 5:00am - 10:59pm,,,,,,4,,,Volta,https://voltacharging.com/,GPS,40.58269775,-74.1678755,4/20/23,166727,2023-04-20 01:26:05 UTC,,,,8/31/20,,,,,J1772,US,,,,Public,,public,,,,,,,,,,,,,,,,,,,,FALSE,,,,,,,
